id_puesto,municipio,zona,num_puesto,nombre_puesto,votos_camilo,votos_sanchez,votos_nanclares,votos_carvalho_2022,votos_hoyos,votos_zuluaga,votos_creemos,votos_pacto,votos_cd_total,nombre_norm,PUESTO,DIRECCIÓN,lat,lon,COMUNA,tipo_match,pct_medellin_camilo,pct_zona_camilo,pct_medellin_carvalho,pct_zona_carvalho,pct_medellin_sanchez,pct_zona_sanchez,pct_medellin_nanclares,pct_zona_nanclares,pct_medellin_hoyos,pct_zona_hoyos,pct_medellin_creemos,pct_zona_creemos,pct_medellin_pacto,pct_zona_pacto,pct_medellin_cd,pct_zona_cd
1_1,MEDELLIN,1,1.0,SEC. ESC. LA ESPERANZA No 2,4,6,3,23,24,39,290,816,613,SEC. ESC. LA ESPERANZA NO 2,SEC. ESC. LA ESPERANZA No 2,KR 29 # 102 - 20,6.29116,-75.541166,01COMUNA 1 POPULAR,exacto,0.0607,19.0476,0.096,27.0588,0.211,15.7895,0.0975,7.8947,0.1544,36.3636,0.1749,11.7743,0.4819,13.8988,0.2052,16.0345
1_2,MEDELLIN,1,2.0,INST.EDUC. LA CANDELARIA,7,14,12,18,17,31,532,1150,951,INST.EDUC. LA CANDELARIA,INST.EDUC. LA CANDELARIA,CL 106 # 32-100,6.2935183,-75.5424117,01COMUNA 1 POPULAR,exacto,0.1062,33.3333,0.0751,21.1765,0.4923,36.8421,0.3899,31.5789,0.1093,25.7576,0.3209,21.5997,0.6791,19.5878,0.3183,24.8758
1_3,MEDELLIN,1,3.0,IE MARIA DE LOS ANGELES CANO MARQUEZ,3,5,2,12,6,20,404,904,577,IE MARIA DE LOS ANGELES CANO MARQUEZ,IE MARIA DE LOS ANGELES CANO MARQUEZ,CRA 36B No 102C -54,6.2923713,-75.5448303,01COMUNA 1 POPULAR,exacto,0.0455,14.2857,0.0501,14.1176,0.1758,13.1579,0.065,5.2632,0.0386,9.0909,0.2437,16.4028,0.5338,15.3977,0.1931,15.0929
1_4,MEDELLIN,1,4.0,SEC. ESC. MEDELLIN,2,8,9,26,7,51,570,739,766,SEC. ESC. MEDELLIN,SEC. ESC. MEDELLIN,CL 96 # 36-45,6.2867589,-75.5465494,01COMUNA 1 POPULAR,exacto,0.0303,9.5238,0.1085,30.5882,0.2813,21.0526,0.2924,23.6842,0.045,10.6061,0.3438,23.1425,0.4364,12.5873,0.2564,20.0366
1_5,MEDELLIN,1,5.0,I.E.FE Y ALEGRIA GRANIZAL,1,0,2,2,2,8,184,498,183,I.E.FE Y ALEGRIA GRANIZAL,I.E.FE Y ALEGRIA GRANIZAL,Cra 39A N° 104-23,6.292777,-75.5477324,01COMUNA 1 POPULAR,exacto,0.0152,4.7619,0.0083,2.3529,0.0,0.0,0.065,5.2632,0.0129,3.0303,0.111,7.4706,0.2941,8.4824,0.0613,4.7868
1_6,MEDELLIN,1,6.0,IE LA AVANZADA,1,1,0,1,0,18,40,173,106,IE LA AVANZADA,IE LA AVANZADA,CRA 27 No 106BB-65,6.2943218,-75.5390466,01COMUNA 1 POPULAR,exacto,0.0152,4.7619,0.0042,1.1765,0.0352,2.6316,0.0,0.0,0.0,0.0,0.0241,1.624,0.1022,2.9467,0.0355,2.7727
1_7,MEDELLIN,1,7.0,SEC. ESC. CARPINELO AMAPOLITA,0,0,0,0,1,7,58,247,113,SEC. ESC. CARPINELO AMAPOLITA,SEC. ESC. CARPINELO AMAPOLITA,CALLE 97 # 23-12,6.2869144,-75.5384628,01COMUNA 1 POPULAR,exacto,0.0,0.0,0.0,0.0,0.0,0.0,0.0,0.0,0.0064,1.5152,0.035,2.3549,0.1459,4.2071,0.0378,2.9558
1_8,MEDELLIN,1,8.0,IE ANTONIO DERKA,2,2,4,3,6,19,129,689,237,IE ANTONIO DERKA,IE ANTONIO DERKA,CRA 28 No 107-425,6.2968626,-75.5387284,01COMUNA 1 POPULAR,exacto,0.0303,9.5238,0.0125,3.5294,0.0703,5.2632,0.13,10.5263,0.0386,9.0909,0.0778,5.2375,0.4069,11.7356,0.0793,6.1993
1_9,MEDELLIN,1,9.0,SEC. ESC. NUEVO HORIZONTE 2,1,2,6,0,3,18,256,655,277,SEC. ESC. NUEVO HORIZONTE 2,,,6.29729,-75.54678,,,0.0152,4.7619,0.0,0.0,0.0703,5.2632,0.1949,15.7895,0.0193,4.5455,0.1544,10.3938,0.3868,11.1565,0.0927,7.2456
10_1,MEDELLIN,10,1.0,I.E. MARIA MONTESSORI,25,12,9,82,34,120,1230,1517,1843,I.E. MARIA MONTESSORI,I.E. MARIA MONTESSORI,KR 69A # 92C-87,6.2867714,-75.5750512,05COMUNA 5 CASTILLA,exacto,0.3794,22.9358,0.3422,23.4957,0.4219,19.0476,0.2924,18.3673,0.2187,21.3836,0.7419,26.8032,0.8958,24.2178,0.6169,26.972
10_2,MEDELLIN,10,2.0,ITM CASTILLA,34,22,12,120,39,81,1314,1926,1884,ITM CASTILLA,ITM CASTILLA,CR 65 No 98 A - 75,6.2938559,-75.5691395,05COMUNA 5 CASTILLA,exacto,0.5159,31.1927,0.5007,34.384,0.7736,34.9206,0.3899,24.4898,0.2508,24.5283,0.7926,28.6337,1.1374,30.7471,0.6307,27.5721
10_3,MEDELLIN,10,3.0,I.E. DINAMARCA,18,10,4,41,17,38,453,820,660,I.E. DINAMARCA,I.E. DINAMARCA,Calle 91 No 65-119,6.2825209,-75.5727759,05COMUNA 5 CASTILLA,exacto,0.2731,16.5138,0.1711,11.7479,0.3516,15.873,0.13,8.1633,0.1093,10.6918,0.2732,9.8714,0.4842,13.0907,0.2209,9.659
10_4,MEDELLIN,10,4.0,I.E. REPUBLICA DE URUGUAY,20,7,16,69,59,64,1076,1212,1636,I.E. REPUBLICA DE URUGUAY,I.E. REPUBLICA DE URUGUAY,CL 91A No 70A-123,6.2840648,-75.5775506,05COMUNA 5 CASTILLA,exacto,0.3035,18.3486,0.2879,19.7708,0.2461,11.1111,0.5198,32.6531,0.3795,37.1069,0.649,23.4474,0.7157,19.3487,0.5476,23.9426
10_5,MEDELLIN,10,5.0,IE FELIX DE BEDOUT MORENO,12,8,6,37,9,26,425,589,638,IE FELIX DE BEDOUT MORENO,IE FELIX DE BEDOUT MORENO,CLL 108 No 70-39,6.3062053,-75.5695653,05COMUNA 5 CASTILLA,exacto,0.1821,11.0092,0.1544,10.6017,0.2813,12.6984,0.1949,12.2449,0.0579,5.6604,0.2563,9.2613,0.3478,9.4029,0.2136,9.337
10_6,MEDELLIN,10,6.0,TERMINAL DE TRANSPORTES DEL NORTE,0,4,2,0,1,12,91,200,172,TERMINAL DE TRANSPORTES DEL NORTE,TERMINAL DE TRANSPORTES DEL NORTE,CR 64 C No 78  580,6.2793147,-75.5708468,05COMUNA 5 CASTILLA,exacto,0.0,0.0,0.0,0.0,0.1406,6.3492,0.065,4.0816,0.0064,0.6289,0.0549,1.983,0.1181,3.1928,0.0576,2.5172
11_1,MEDELLIN,11,1.0,I.E. CIUDADELA LAS AMERICAS,10,10,5,54,28,40,946,1156,1328,I.E. CIUDADELA LAS AMERICAS,I.E. CIUDADELA LAS AMERICAS,CL 111 # 79-77,6.3085993,-75.5753986,06COMUNA 6 DOCE DE OCTUBRE,exacto,0.1517,22.7273,0.2253,24.2152,0.3516,22.2222,0.1624,17.8571,0.1801,26.4151,0.5706,23.3696,0.6827,21.0795,0.4445,23.4961
11_2,MEDELLIN,11,2.0,I.E. PROGRESAR,7,3,7,25,9,55,458,606,784,I.E. PROGRESAR,I.E. PROGRESAR,KR 83A # 106 D 5,6.3085984,-75.5805409,06COMUNA 6 DOCE DE OCTUBRE,exacto,0.1062,15.9091,0.1043,11.2108,0.1055,6.6667,0.2274,25.0,0.0579,8.4906,0.2763,11.3142,0.3579,11.0503,0.2624,13.8712
11_3,MEDELLIN,11,3.0,SEC. ESC. LEON DE GREIFF,4,4,3,33,16,28,491,593,792,SEC. ESC. LEON DE GREIFF,SEC. ESC. LEON DE GREIFF,CL 101CC # 82E-72,6.3022944,-75.5808114,06COMUNA 6 DOCE DE OCTUBRE,exacto,0.0607,9.0909,0.1377,14.7982,0.1406,8.8889,0.0975,10.7143,0.1029,15.0943,0.2962,12.1294,0.3502,10.8133,0.2651,14.0127
11_4,MEDELLIN,11,4.0,I.E. DOCE DE OCTUBRE,4,8,4,30,16,49,770,553,1046,I.E. DOCE DE OCTUBRE,I.E. DOCE DE OCTUBRE,KR 77B # 103-05,6.3030409,-75.5769557,06COMUNA 6 DOCE DE OCTUBRE,exacto,0.0607,9.0909,0.1252,13.4529,0.2813,17.7778,0.13,14.2857,0.1029,15.0943,0.4644,19.0217,0.3266,10.0839,0.3501,18.5067
11_5,MEDELLIN,11,5.0,I.E. JOSE MARIA ESPINOSA PRIETO - CASD,0,3,2,11,4,9,226,408,294,I.E. JOSE MARIA ESPINOSA PRIETO - CASD,CASD JOSE MARIA ESPINOSA PRIETO,CLL 99 No 72-192,6.2970097,-75.5755596,06COMUNA 6 DOCE DE OCTUBRE,fuzzy,0.0,0.0,0.0459,4.9327,0.1055,6.6667,0.065,7.1429,0.0257,3.7736,0.1363,5.583,0.2409,7.4398,0.0984,5.2017
11_6,MEDELLIN,11,6.0,I.E. EL TRIUNFO SANTA TERESA,1,1,1,8,11,23,181,469,323,I.E. EL TRIUNFO SANTA TERESA,I.E. EL TRIUNFO SANTA TERESA,CALLE 104D # 82GG - 21,6.3065152,-75.5811794,06COMUNA 6 DOCE DE OCTUBRE,exacto,0.0152,2.2727,0.0334,3.5874,0.0352,2.2222,0.0325,3.5714,0.0707,10.3774,0.1092,4.4713,0.277,8.5522,0.1081,5.7148
11_7,MEDELLIN,11,7.0,I.E. SANTA JUANA DE LESTONNAC,14,13,4,52,11,25,666,1053,624,I.E. SANTA JUANA DE LESTONNAC,IE SANTA JUANA DE LESTONACC,CRA 76A No 103C-43,6.3030437,-755.755,06COMUNA 6 DOCE DE OCTUBRE,fuzzy,0.2124,31.8182,0.217,23.3184,0.4571,28.8889,0.13,14.2857,0.0707,10.3774,0.4017,16.4526,0.6218,19.2013,0.2089,11.0403
11_8,MEDELLIN,11,8.0,I.E. JESUS MARIA VALLE,4,3,2,10,11,23,310,646,461,I.E. JESUS MARIA VALLE,IE JESUS MARIA VALLE JARAMILLO,CLL 101 No 83-21,6.3004809,-75.5822333,06COMUNA 6 DOCE DE OCTUBRE,fuzzy,0.0607,9.0909,0.0417,4.4843,0.1055,6.6667,0.065,7.1429,0.0707,10.3774,0.187,7.6581,0.3815,11.7797,0.1543,8.1564
12_1,MEDELLIN,12,1.0,I.E.MAESTRO FERNANDO BOTERO,10,6,12,90,28,74,1026,995,1529,I.E.MAESTRO FERNANDO BOTERO,I.E.MAESTRO FERNANDO BOTERO,CL 104 # 72A-80,6.3015698,-75.5719519,06COMUNA 6 DOCE DE OCTUBRE,exacto,0.1517,12.987,0.3755,29.0323,0.211,18.75,0.3899,23.0769,0.1801,19.7183,0.6189,20.648,0.5876,17.0552,0.5118,21.1861
12_2,MEDELLIN,12,2.0,I.E.ALFREDO COCK ARANGO,12,3,10,44,34,68,909,987,1288,I.E.ALFREDO COCK ARANGO,I.E.ALFREDO COCK ARANGO,KR 72 # 99-55,6.2962348,-75.5737998,06COMUNA 6 DOCE DE OCTUBRE,exacto,0.1821,15.5844,0.1836,14.1935,0.1055,9.375,0.3249,19.2308,0.2187,23.9437,0.5483,18.2934,0.5829,16.9181,0.4312,17.8468
12_3,MEDELLIN,12,3.0,SEC.ESC.SAN MARTIN DE PORRES,9,4,9,26,12,63,614,641,883,SEC.ESC.SAN MARTIN DE PORRES,SEC.ESC.SAN MARTIN DE PORRES,KR 75A # 97-135,6.2958628,-75.5786048,06COMUNA 6 DOCE DE OCTUBRE,exacto,0.1366,11.6883,0.1085,8.3871,0.1406,12.5,0.2924,17.3077,0.0772,8.4507,0.3703,12.3566,0.3785,10.9873,0.2956,12.235
12_4,MEDELLIN,12,4.0,I.E. KENNEDY,11,6,12,44,33,49,906,815,1497,I.E. KENNEDY,I.E. KENNEDY,CRA 76A  No 92-200,6.2912824,-75.5815187,06COMUNA 6 DOCE DE OCTUBRE,exacto,0.1669,14.2857,0.1836,14.1935,0.211,18.75,0.3899,23.0769,0.2122,23.2394,0.5465,18.233,0.4813,13.9698,0.5011,20.7427
12_5,MEDELLIN,12,5.0,SEC.CONCENTRACION EDUC.KENNEDY,12,3,2,47,17,34,635,869,746,SEC.CONCENTRACION EDUC.KENNEDY,SEC.CONCENTRACION EDUC.KENNEDY,CARRERA 76A # 92-131,6.2907455,-75.5816447,06COMUNA 6 DOCE DE OCTUBRE,exacto,0.1821,15.5844,0.1961,15.1613,0.1055,9.375,0.065,3.8462,0.1093,11.9718,0.383,12.7792,0.5132,14.8954,0.2497,10.3367
12_6,MEDELLIN,12,6.0,I.E. JORGE ELIECER GAITAN,5,2,1,15,6,7,254,385,446,I.E. JORGE ELIECER GAITAN,I.E.JORGE ELIECER GAITAN(PPAL),CALLE 92 # 83-41,6.2899142,-75.5852278,06COMUNA 6 DOCE DE OCTUBRE,fuzzy,0.0759,6.4935,0.0626,4.8387,0.0703,6.25,0.0325,1.9231,0.0386,4.2254,0.1532,5.1117,0.2274,6.5992,0.1493,6.1799
12_7,MEDELLIN,12,7.0,SEC. ESC. EL PEDREGAL,11,7,4,24,4,17,335,644,427,SEC. ESC. EL PEDREGAL,SEC. ESC. PEDREGAL,CLL 104E No 74-109,6.3034096,-75.5730437,06COMUNA 6 DOCE DE OCTUBRE,fuzzy,0.1669,14.2857,0.1001,7.7419,0.2461,21.875,0.13,7.6923,0.0257,2.8169,0.2021,6.7418,0.3803,11.0387,0.1429,5.9166
12_8,MEDELLIN,12,8.0,I.E.LA ESPERANZA,7,1,2,20,8,32,284,476,387,I.E.LA ESPERANZA,I.E.LA ESPERANZA,CRA 73B No 96-09,6.2931056,-75.5772736,06COMUNA 6 DOCE DE OCTUBRE,exacto,0.1062,9.0909,0.0835,6.4516,0.0352,3.125,0.065,3.8462,0.0515,5.6338,0.1713,5.7154,0.2811,8.1591,0.1295,5.3623
12_9,MEDELLIN,12,9.0,SENA PEDREGAL,0,0,0,0,0,2,6,22,14,SENA PEDREGAL,,,6.302009,-75.56857,,,0.0,0.0,0.0,0.0,0.0,0.0,0.0,0.0,0.0,0.0,0.0036,0.1207,0.013,0.3771,0.0047,0.194
13_1,MEDELLIN,13,1.0,I.E. SAN VICENTE DE PAUL,34,14,15,175,46,65,1162,890,1707,I.E. SAN VICENTE DE PAUL,I.E. SAN VICENTE DE PAUL,KR 71A # 79D-01,6.278927,-75.5790277,07COMUNA 7 ROBLEDO,exacto,0.5159,22.973,0.7302,30.541,0.4923,14.8936,0.4873,23.0769,0.2959,23.5897,0.7009,19.0056,0.5256,12.3081,0.5714,20.1535
13_2,MEDELLIN,13,2.0,SEC.ESC. EL DIAMANTE,15,14,14,52,16,67,969,795,1374,SEC.ESC. EL DIAMANTE,SEC.ESC. EL DIAMANTE,CL 79A # 86-09,6.2853308,-75.5871781,07COMUNA 7 ROBLEDO,exacto,0.2276,10.1351,0.217,9.075,0.4923,14.8936,0.4548,21.5385,0.1029,8.2051,0.5845,15.8489,0.4695,10.9943,0.4599,16.222
13_3,MEDELLIN,13,3.0,I.E.EL DIAMANTE (SEDE BTO),23,18,6,84,19,42,726,996,843,I.E.EL DIAMANTE (SEDE BTO),I.E.EL DIAMANTE (SEDE BTO),CARRERA 87 No. 79-05,6.2860819,-75.5881659,07COMUNA 7 ROBLEDO,exacto,0.349,15.5405,0.3505,14.6597,0.6329,19.1489,0.1949,9.2308,0.1222,9.7436,0.4379,11.8744,0.5882,13.774,0.2822,9.9528
13_4,MEDELLIN,13,4.0,I.E. VILLA DE LA CANDELARIA,6,11,12,66,37,52,910,1039,1354,I.E. VILLA DE LA CANDELARIA,,,6.284927,-75.593699,,,0.091,4.0541,0.2754,11.5183,0.3868,11.7021,0.3899,18.4615,0.238,18.9744,0.5489,14.8839,0.6136,14.3687,0.4532,15.9858
13_5,MEDELLIN,13,5.0,I.E.FE Y ALEGRIA SAN JOSE,5,2,0,12,15,16,432,794,512,I.E.FE Y ALEGRIA SAN JOSE,I.E.FE Y ALEGRIA SAN JOSE,CALLE 86 # 92-60,6.2912166,-75.5900082,07COMUNA 7 ROBLEDO,exacto,0.0759,3.3784,0.0501,2.0942,0.0703,2.1277,0.0,0.0,0.0965,7.6923,0.2606,7.0658,0.4689,10.9805,0.1714,6.0449
13_6,MEDELLIN,13,6.0,TECNOLOGICO DE ANTIOQUIA,56,31,14,148,41,59,1110,1316,1607,TECNOLOGICO DE ANTIOQUIA,TECNOLOGICO DE ANTIOQUIA,CALLE 78B # 72A-220,6.2796063,-75.5834527,07COMUNA 7 ROBLEDO,exacto,0.8498,37.8378,0.6175,25.829,1.09,32.9787,0.4548,21.5385,0.2637,21.0256,0.6695,18.1551,0.7771,18.1994,0.5379,18.9728
13_7,MEDELLIN,13,7.0,IE JESUS REY,9,3,3,31,14,30,537,797,702,IE JESUS REY,IE JESUS REY,CRA 88 No 77A-11,6.2834112,-75.5919937,07COMUNA 7 ROBLEDO,exacto,0.1366,6.0811,0.1293,5.4101,0.1055,3.1915,0.0975,4.6154,0.09,7.1795,0.3239,8.7831,0.4707,11.022,0.235,8.2881
13_8,MEDELLIN,13,8.0,IE AURES,0,1,1,5,7,19,268,604,371,IE AURES,IE AURES,CRA 96A No 77E-15,6.2902077,-75.5965264,07COMUNA 7 ROBLEDO,exacto,0.0,0.0,0.0209,0.8726,0.0352,1.0638,0.0325,1.5385,0.045,3.5897,0.1616,4.3834,0.3567,8.3529,0.1242,4.3802
14_1,MEDELLIN,14,1.0,IE MON GERARDO VALENCIA CANO,18,20,19,85,27,30,578,602,923,IE MON GERARDO VALENCIA CANO,IE MON GERARDO VALENCIA CANO,CL 65 # 74 B - 273,6.2691099,-75.5877256,07COMUNA 7 ROBLEDO,exacto,0.2731,13.9535,0.3547,17.3824,0.7032,19.0476,0.6173,24.0506,0.1737,15.5172,0.3486,12.5081,0.3555,9.9176,0.309,13.5516
14_2,MEDELLIN,14,2.0,I.E. JORGE ROBLEDO,18,12,17,88,37,65,995,990,1801,I.E. JORGE ROBLEDO,I.E. JORGE ROBLEDO,CL 65 # 87-74,6.2768071,-75.5974006,07COMUNA 7 ROBLEDO,exacto,0.2731,13.9535,0.3672,17.9959,0.4219,11.4286,0.5523,21.519,0.238,21.2644,0.6002,21.5321,0.5846,16.3097,0.6029,26.4425
14_3,MEDELLIN,14,3.0,I.E.MARISCAL ROBLEDO,14,4,8,100,19,35,507,675,662,I.E.MARISCAL ROBLEDO,I.E.MARISCAL ROBLEDO,CALLE 65 # 84-87,6.2754017,-75.5958898,07COMUNA 7 ROBLEDO,exacto,0.2124,10.8527,0.4173,20.4499,0.1406,3.8095,0.2599,10.1266,0.1222,10.9195,0.3058,10.9717,0.3986,11.1203,0.2216,9.7196
14_4,MEDELLIN,14,4.0,SEC.ESC. SANTA MARGARITA,4,2,10,9,15,17,526,782,688,SEC.ESC. SANTA MARGARITA,SEC.ESC. SANTA MARGARITA,KR 105B # 62-68,6.2765446,-75.6159666,07COMUNA 7 ROBLEDO,exacto,0.0607,3.1008,0.0376,1.8405,0.0703,1.9048,0.3249,12.6582,0.0965,8.6207,0.3173,11.3828,0.4618,12.883,0.2303,10.1013
14_5,MEDELLIN,14,5.0,INSTITUTO FERRINI - SEDE ROBLEDO,38,26,9,104,37,60,1195,1567,1546,INSTITUTO FERRINI - SEDE ROBLEDO,,,6.277956,-75.592284,,,0.5766,29.4574,0.4339,21.2679,0.9142,24.7619,0.2924,11.3924,0.238,21.2644,0.7208,25.8602,0.9254,25.8155,0.5175,22.6986
14_6,MEDELLIN,14,6.0,I.E.CAMILO MORA CARRASQUILLA,6,7,3,19,9,12,270,411,377,I.E.CAMILO MORA CARRASQUILLA,I.E.CAMILO MORA CARRASQUILLA,CALLE 62D # 94B-74,6.2782545,-75.6062301,07COMUNA 7 ROBLEDO,exacto,0.091,4.6512,0.0793,3.8855,0.2461,6.6667,0.0975,3.7975,0.0579,5.1724,0.1629,5.8429,0.2427,6.771,0.1262,5.5352
14_7,MEDELLIN,14,7.0,COL MAYOR DE ANTIOQUIA,30,32,10,84,23,31,481,839,687,COL MAYOR DE ANTIOQUIA,COL MAYOR DE ANTIOQUIA,CRA 78 No 65-46,6.2732352,-75.5919642,07COMUNA 7 ROBLEDO,exacto,0.4552,23.2558,0.3505,17.1779,1.1252,30.4762,0.3249,12.6582,0.1479,13.2184,0.2901,10.409,0.4955,13.8221,0.23,10.0866
14_8,MEDELLIN,14,8.0,IE BARRIO OLAYA HERRERA,1,2,3,0,7,4,69,204,127,IE BARRIO OLAYA HERRERA,IE BARRIO OLAYA HERRERA,CRA 101C No 58-44,6.3009858,-75.5786012,07COMUNA 7 ROBLEDO,exacto,0.0152,0.7752,0.0,0.0,0.0703,1.9048,0.0975,3.7975,0.045,4.023,0.0416,1.4932,0.1205,3.3608,0.0425,1.8646
15_1,MEDELLIN,15,1.0,I.E. JUAN DE DIOS CARVAJAL,29,11,17,122,22,74,1073,914,1396,I.E. JUAN DE DIOS CARVAJAL,I.E. JUAN DE DIOS CARVAJAL,CL 65AA # 36-39,6.2557426,-75.5510348,08COMUNA 8 VILLA HERMOSA,exacto,0.4401,31.8681,0.5091,35.0575,0.3868,18.3333,0.5523,31.4815,0.1415,19.6429,0.6472,23.4331,0.5397,15.1425,0.4673,21.7581
15_2,MEDELLIN,15,2.0,I.E. JUAN DE LA CRUZ POSADA,12,8,12,71,19,38,519,436,937,I.E. JUAN DE LA CRUZ POSADA,I.E. JUAN DE LA CRUZ POSADA,CL 62 # 39-22,6.253779,-75.5545627,08COMUNA 8 VILLA HERMOSA,exacto,0.1821,13.1868,0.2963,20.4023,0.2813,13.3333,0.3899,22.2222,0.1222,16.9643,0.313,11.3344,0.2575,7.2233,0.3137,14.6041
15_3,MEDELLIN,15,3.0,I.E.JOSE CELESTINO MUTIS,11,8,3,27,16,27,516,631,817,I.E.JOSE CELESTINO MUTIS,I.E.JOSE CELESTINO MUTIS,CALLE 65 No. 45-15,6.2588911,-75.5569624,08COMUNA 8 VILLA HERMOSA,exacto,0.1669,12.0879,0.1127,7.7586,0.2813,13.3333,0.0975,5.5556,0.1029,14.2857,0.3112,11.2688,0.3726,10.4539,0.2735,12.7338
15_4,MEDELLIN,15,4.0,I.T.M. (CAMPUS FRATERNIDAD),6,1,1,23,3,11,217,417,305,I.T.M. (CAMPUS FRATERNIDAD),,,6.245338,-75.550949,,,0.091,6.5934,0.096,6.6092,0.0352,1.6667,0.0325,1.8519,0.0193,2.6786,0.1309,4.739,0.2463,6.9085,0.1021,4.7537
15_5,MEDELLIN,15,5.0,SEC.ESC.JULIA AGUDELO,17,17,17,74,37,101,1432,1806,2024,SEC.ESC.JULIA AGUDELO,SEC.ESC.JULIA AGUDELO,CL 58 # 28-58,6.2499357,-75.5489633,08COMUNA 8 VILLA HERMOSA,exacto,0.258,18.6813,0.3088,21.2644,0.5977,28.3333,0.5523,31.4815,0.238,33.0357,0.8637,31.2732,1.0665,29.9205,0.6775,31.5461
15_6,MEDELLIN,15,6.0,SEC.ESC.NIÑO JESUS DE PRAGA,8,8,3,15,8,18,304,528,267,SEC.ESC.NIÃ‘O JESUS DE PRAGA,SEC.ESC.NIÑO JESUS DE PRAGA,CALLE 57C No. 23-200,6.2486595,-75.5457866,08COMUNA 8 VILLA HERMOSA,fuzzy,0.1214,8.7912,0.0626,4.3103,0.2813,13.3333,0.0975,5.5556,0.0515,7.1429,0.1834,6.639,0.3118,8.7475,0.0894,4.1615
15_7,MEDELLIN,15,7.0,I.E.SOL DE ORIENTE,2,0,0,2,2,16,107,445,196,I.E.SOL DE ORIENTE,I.E.SOL DE ORIENTE,CARRERA 23 No. 56EH - 200,6.2449345,-75.5405979,08COMUNA 8 VILLA HERMOSA,exacto,0.0303,2.1978,0.0083,0.5747,0.0,0.0,0.0,0.0,0.0129,1.7857,0.0645,2.3368,0.2628,7.3724,0.0656,3.0549
15_8,MEDELLIN,15,8.0,I.E. LUIS CARLOS GALAN SARMIENTO,2,4,1,10,2,12,228,576,276,I.E. LUIS CARLOS GALAN SARMIENTO,IE LUIS CARLOS GALAN SARMIENTO PPAL,CRA 24B No 57EE-45,6.2503967,-75.5469371,08COMUNA 8 VILLA HERMOSA,fuzzy,0.0303,2.1978,0.0417,2.8736,0.1406,6.6667,0.0325,1.8519,0.0129,1.7857,0.1375,4.9793,0.3401,9.5427,0.0924,4.3017
15_9,MEDELLIN,15,9.0,IE ESC NORMAL SUPERIOR DE MEDELLIN,4,3,0,4,3,11,183,283,198,IE ESC NORMAL SUPERIOR DE MEDELLIN,IE ESC NORMAL SUPERIOR DE MEDELLIN,CRA 34 No 65 - 02,6.2544209,-75.5487597,08COMUNA 8 VILLA HERMOSA,exacto,0.0607,4.3956,0.0167,1.1494,0.1055,5.0,0.0,0.0,0.0193,2.6786,0.1104,3.9965,0.1671,4.6885,0.0663,3.086
16_1,MEDELLIN,16,1.0,SEC. ESC. VILLA TURBAY,0,1,4,3,4,10,150,386,302,SEC. ESC. VILLA TURBAY,I.E. VILLA TURBAY,KR 2 # 55F-17,6.2357365,-75.53021,08COMUNA 8 VILLA HERMOSA,fuzzy,0.0,0.0,0.0125,4.6875,0.0352,4.7619,0.13,19.0476,0.0257,7.0175,0.0905,7.515,0.2279,12.689,0.1011,10.6941
16_2,MEDELLIN,16,2.0,SECCION ESCUELA HOGAR ANTIOQUIA,0,1,2,11,14,16,147,231,285,SECCION ESCUELA HOGAR ANTIOQUIA,SECCION ESCUELA HOGAR ANTIOQUIA,CALLE 52A No 12 34,6.2342969,-75.5389514,08COMUNA 8 VILLA HERMOSA,exacto,0.0,0.0,0.0459,17.1875,0.0352,4.7619,0.065,9.5238,0.09,24.5614,0.0887,7.3647,0.1364,7.5937,0.0954,10.0921
16_3,MEDELLIN,16,3.0,SEC ESC SOR MARIA LUISA COURBIN,3,8,6,22,10,45,652,665,826,SEC ESC SOR MARIA LUISA COURBIN,SEC ESC SOR MARIA LUISA COURBIN,KR 12 # 52-44,6.2340857,-75.5384505,08COMUNA 8 VILLA HERMOSA,exacto,0.0455,33.3333,0.0918,34.375,0.2813,38.0952,0.1949,28.5714,0.0643,17.5439,0.3933,32.6653,0.3927,21.8606,0.2765,29.2493
16_4,MEDELLIN,16,4.0,I.E. SAN FRANCISCO DE ASIS,0,4,4,10,9,24,418,805,605,I.E. SAN FRANCISCO DE ASIS,I.E. SAN FRANCISCO DE ASIS,CL 56 # 16-18,6.2383791,-75.5397024,08COMUNA 8 VILLA HERMOSA,exacto,0.0,0.0,0.0417,15.625,0.1406,19.0476,0.13,19.0476,0.0579,15.7895,0.2521,20.9419,0.4754,26.4629,0.2025,21.4235
16_5,MEDELLIN,16,5.0,IE FELIX HENAO BOTERO,6,7,5,18,19,27,595,852,746,IE FELIX HENAO BOTERO,IE FELIX HENAO BOTERO,CLL 52 No 23-51,6.2408062,-75.5466873,08COMUNA 8 VILLA HERMOSA,exacto,0.091,66.6667,0.0751,28.125,0.2461,33.3333,0.1624,23.8095,0.1222,33.3333,0.3589,29.8096,0.5031,28.0079,0.2497,26.4164
16_6,MEDELLIN,16,6.0,IE GABRIEL GARCIA MARQUEZ,0,0,0,0,1,5,34,103,60,IE GABRIEL GARCIA MARQUEZ,IE GABRIEL GARCIA MARQUEZ,CRA 8A No. 57A - 93,6.2368344,-75.5336684,08COMUNA 8 VILLA HERMOSA,exacto,0.0,0.0,0.0,0.0,0.0,0.0,0.0,0.0,0.0064,1.7544,0.0205,1.7034,0.0608,3.3859,0.0201,2.1246
17_1,MEDELLIN,17,1.0,I.E.GUADALUPANO LA SALLE,24,12,11,87,33,71,1047,1164,1596,I.E.GUADALUPANO LA SALLE,I.E.GUADALUPANO LA SALLE,CALLE 49 No. 17 B 21,6.236225,-75.5444385,09COMUNA 9 BUENOS AIRES,exacto,0.3642,16.3265,0.363,15.6194,0.4219,12.2449,0.3574,15.0685,0.2122,15.0,0.6315,16.1574,0.6874,16.1599,0.5343,17.7788
17_2,MEDELLIN,17,2.0,IE MERCEDITAS GOMEZ MARTINEZ,26,12,7,103,40,51,1169,1183,1445,IE MERCEDITAS GOMEZ MARTINEZ,IE MERCEDITAS GOMEZ MARTINEZ,CL 45 # 18-03,6.23351,-75.5468405,09COMUNA 9 BUENOS AIRES,exacto,0.3945,17.6871,0.4298,18.4919,0.4219,12.2449,0.2274,9.589,0.2573,18.1818,0.7051,18.0401,0.6986,16.4237,0.4837,16.0967
17_3,MEDELLIN,17,3.0,I.E. MANUEL JOSÉ CAYZEDO,22,20,12,66,25,39,708,986,1036,I.E. MANUEL JOSÃ‰ CAYZEDO,MANUEL JOSÈ CAYZEDO,CLl 50 No 29-82,6.2414416,-75.5520487,09COMUNA 9 BUENOS AIRES,fuzzy,0.3338,14.966,0.2754,11.8492,0.7032,20.4082,0.3899,16.4384,0.1608,11.3636,0.427,10.9259,0.5823,13.6887,0.3468,11.5406
17_4,MEDELLIN,17,4.0,I.E. LA MILAGROSA,44,16,21,237,74,115,2011,1706,2952,I.E. LA MILAGROSA,I.E. LA MILAGROSA,KR 29 # 41-14,6.2351204,-75.5547173,09COMUNA 9 BUENOS AIRES,exacto,0.6677,29.932,0.9889,42.5494,0.5626,16.3265,0.6823,28.7671,0.4759,33.6364,1.213,31.034,1.0074,23.6846,0.9882,32.884
17_5,MEDELLIN,17,5.0,COLEGIO EUCARISTICO,16,15,11,43,28,44,720,822,909,COLEGIO EUCARISTICO,COLEGIO EUCARISTICO,CRA 28 No 42-62,6.2353641,-75.5535999,09COMUNA 9 BUENOS AIRES,exacto,0.2428,10.8844,0.1794,7.7199,0.5274,15.3061,0.3574,15.0685,0.1801,12.7273,0.4343,11.1111,0.4854,11.4119,0.3043,10.1259
17_6,MEDELLIN,17,6.0,SENA - SEDE BUENOS AIRES,5,9,4,8,6,13,175,386,220,SENA - SEDE BUENOS AIRES,SENA SD BUENOS AIRES,CLL 48 No 28-00,6.239476,-75.5523373,09COMUNA 9 BUENOS AIRES,fuzzy,0.0759,3.4014,0.0334,1.4363,0.3165,9.1837,0.13,5.4795,0.0386,2.7273,0.1056,2.7006,0.2279,5.3589,0.0736,2.4507
17_7,MEDELLIN,17,7.0,IE ARZOBISPO TULIO BOTERO SALAZAR,3,5,2,3,3,15,129,278,193,IE ARZOBISPO TULIO BOTERO SALAZAR,IE ARZOBISPO TULIO BOTERO SALAZAR,CLL 49A No 03A - 006,6.2300656,-75.5326104,09COMUNA 9 BUENOS AIRES,exacto,0.0455,2.0408,0.0125,0.5386,0.1758,5.102,0.065,2.7397,0.0193,1.3636,0.0778,1.9907,0.1642,3.8595,0.0646,2.1499
17_8,MEDELLIN,17,8.0,IE MADRE LAURA,4,6,1,10,7,14,273,331,357,IE MADRE LAURA,IE MADRE LAURA,CLL 45 No 22A - 81,6.2354493,-75.5508485,09COMUNA 9 BUENOS AIRES,exacto,0.0607,2.7211,0.0417,1.7953,0.211,6.1224,0.0325,1.3699,0.045,3.1818,0.1647,4.213,0.1955,4.5953,0.1195,3.9768
17_9,MEDELLIN,17,9.0,SECCION ESCUELA ALEJANDRO ECHAVARRIA,3,3,4,0,4,5,248,347,269,SECCION ESCUELA ALEJANDRO ECHAVARRIA,SECCION ESCUELA ALEJANDRO ECHAVARRIA,CARRERA 16 NO 49B 8,6.2349272,-75.5423472,09COMUNA 9 BUENOS AIRES,exacto,0.0455,2.0408,0.0,0.0,0.1055,3.0612,0.13,5.4795,0.0257,1.8182,0.1496,3.8272,0.2049,4.8174,0.09,2.9965
18_1,MEDELLIN,18,1.0,I.E. GABRIELA GOMEZ CARVAJAL,20,4,11,59,36,62,770,1020,1114,I.E. GABRIELA GOMEZ CARVAJAL,IE LORETO GABRIELA GOMEZ CARVAJAL,KR 32 # 34-06,6.2312734,-75.5597163,09COMUNA 9 BUENOS AIRES,fuzzy,0.3035,18.018,0.2462,12.8821,0.1406,7.4074,0.3574,18.0328,0.2315,17.3077,0.4644,16.8601,0.6023,22.8392,0.3729,16.2272
18_2,MEDELLIN,18,2.0,IE FEDERICO OZANAM,27,16,17,141,54,107,1364,1099,2055,IE FEDERICO OZANAM,IE FEDERICO OZANAM,CRA.36 No 45 - 08,6.2404694,-75.5582027,09COMUNA 9 BUENOS AIRES,exacto,0.4097,24.3243,0.5883,30.786,0.5626,29.6296,0.5523,27.8689,0.3473,25.9615,0.8227,29.8664,0.649,24.6082,0.6879,29.9345
18_3,MEDELLIN,18,3.0,ESC NORMAL SUPERIOR ANTIOQUEÑA,29,17,14,119,64,116,989,933,1690,ESC NORMAL SUPERIOR ANTIOQUEÃ‘A,ESC NORMAL SUPERIOR ANTIOQUEÑA,KR 36A # 48-55,6.2424929,-75.5584713,09COMUNA 9 BUENOS AIRES,fuzzy,0.4401,26.1261,0.4965,25.9825,0.5977,31.4815,0.4548,22.9508,0.4116,30.7692,0.5965,21.6554,0.551,20.8912,0.5657,24.6176
18_4,MEDELLIN,18,4.0,SEC. ESC. JOSE DE SAN MARTIN,31,15,18,133,44,75,1297,1190,1851,SEC. ESC. JOSE DE SAN MARTIN,SEC. ESC. JOSE DE SAN MARTIN,CL 39 # 38- 21,6.2369565,-75.5626341,09COMUNA 9 BUENOS AIRES,exacto,0.4704,27.9279,0.555,29.0393,0.5274,27.7778,0.5848,29.5082,0.283,21.1538,0.7823,28.3994,0.7027,26.6458,0.6196,26.9629
18_5,MEDELLIN,18,5.0,SEC. ESC. JUAN CANCIO RESTREPO,4,2,1,6,10,6,147,224,155,SEC. ESC. JUAN CANCIO RESTREPO,SEC. ESC. JUAN CANCIO RESTREPO,CLL 45 No 31-63,6.2384978,-75.5556738,09COMUNA 9 BUENOS AIRES,exacto,0.0607,3.6036,0.025,1.31,0.0703,3.7037,0.0325,1.6393,0.0643,4.8077,0.0887,3.2187,0.1323,5.0157,0.0519,2.2578
19_1,MEDELLIN,19,1.0,I.E. TULIO OSPINA,23,12,14,101,46,57,701,944,1642,I.E. TULIO OSPINA,I.E. TULIO OSPINA,KR 51 D # 60-38,6.2591134,-75.5662527,10COMUNA 10 LA CANDELARIA,exacto,0.349,9.8712,0.4214,15.8805,0.4219,10.2564,0.4548,16.4706,0.2959,16.4286,0.4228,13.4086,0.5575,13.7409,0.5497,16.2301
19_2,MEDELLIN,19,2.0,SEC. COL. AGUSTIN NIETO CABALLERO,8,3,5,45,22,22,285,346,623,SEC. COL. AGUSTIN NIETO CABALLERO,SEC ESC AGUSTIN NIETO CABALLERO,KR 40 # 59A-21,6.2523822,-75.5571236,10COMUNA 10 LA CANDELARIA,fuzzy,0.1214,3.4335,0.1878,7.0755,0.1055,2.5641,0.1624,5.8824,0.1415,7.8571,0.1719,5.4514,0.2043,5.0364,0.2085,6.158
19_3,MEDELLIN,19,3.0,COLEGIO SALESIANO EL SUFRAGIO,72,17,13,197,86,111,1494,1440,2745,COLEGIO SALESIANO EL SUFRAGIO,COLEGIO SALESIANO EL SUFRAGIO,KR 39 # 54-31,6.248296,-75.5580802,10COMUNA 10 LA CANDELARIA,exacto,1.0926,30.9013,0.822,30.9748,0.5977,14.5299,0.4224,15.2941,0.5531,30.7143,0.9011,28.5769,0.8504,20.9607,0.9189,27.1325
19_4,MEDELLIN,19,4.0,I.E. CENTRO FORMATIVO DE ANTIOQUIA -CEFA,53,38,23,159,62,174,1301,1828,2717,I.E. CENTRO FORMATIVO DE ANTIOQUIA -CEFA,I.E. CEFA,CL 50 # 41-55,6.2464754,-75.5619144,10COMUNA 10 LA CANDELARIA,manual,0.8042,22.7468,0.6634,25.0,1.3361,32.4786,0.7472,27.0588,0.3988,22.1429,0.7847,24.8852,1.0795,26.6084,0.9095,26.8558
19_5,MEDELLIN,19,5.0,I.E. HECTOR ABAD GOMEZ,49,19,16,98,40,74,957,1365,1574,I.E. HECTOR ABAD GOMEZ,I.E. HECTOR ABAD GOMEZ,CL 50 #39-65,6.2455254,-75.5599889,10COMUNA 10 LA CANDELARIA,exacto,0.7436,21.03,0.4089,15.4088,0.6681,16.2393,0.5198,18.8235,0.2573,14.2857,0.5772,18.3053,0.8061,19.869,0.5269,15.558
19_6,MEDELLIN,19,6.0,I.E. JAVIERA LONDOÑO,21,21,7,26,16,20,278,526,497,I.E. JAVIERA LONDOÃ‘O,I.E. JAVIERA LONDOÑO,CL 71 # 51D-26,6.2681464,-75.5649129,04COMUNA 4 ARANJUEZ,fuzzy,0.3187,9.0129,0.1085,4.0881,0.7384,17.9487,0.2274,8.2353,0.1029,5.7143,0.1677,5.3175,0.3106,7.6565,0.1664,4.9125
19_7,MEDELLIN,19,7.0,I.T.M. (PRADO CENTRO),7,7,7,10,8,13,212,421,319,I.T.M. (PRADO CENTRO),I.T.M. (PRADO CENTRO),CRA 51 No 58-69,6.2575764,-75.5662123,10COMUNA 10 LA CANDELARIA,exacto,0.1062,3.0043,0.0417,1.5723,0.2461,5.9829,0.2274,8.2353,0.0515,2.8571,0.1279,4.0551,0.2486,6.1281,0.1068,3.1531
2_1,MEDELLIN,2,1.0,I.E. NUEVO HORIZONTE - PAULO VI,3,4,5,35,13,33,361,538,698,I.E. NUEVO HORIZONTE - PAULO VI,IE NUEVO HORIZONTES No 2,CARRERA 37 No 107AA 21,6.2947441,-75.5460378,01COMUNA 1 POPULAR,fuzzy,0.0455,15.7895,0.146,30.7018,0.1406,18.1818,0.1624,18.5185,0.0836,23.6364,0.2177,20.0111,0.3177,17.0199,0.2337,24.7342
2_2,MEDELLIN,2,2.0,SEC. ESC. DIVINA PROVIDENCIA,5,0,6,26,19,39,418,845,639,SEC. ESC. DIVINA PROVIDENCIA,SEC. ESC. DIVINA PROVIDENCIA,CL 108 NO 43B - 17,6.2973347,-75.5492118,01COMUNA 1 POPULAR,exacto,0.0759,26.3158,0.1085,22.807,0.0,0.0,0.1949,22.2222,0.1222,34.5455,0.2521,23.1707,0.499,26.732,0.2139,22.6435
2_3,MEDELLIN,2,3.0,SEC.ESC.AGRIPINA MONTES DEL VALLE,4,6,6,14,16,55,475,497,743,SEC.ESC.AGRIPINA MONTES DEL VALLE,SEC.ESC.AGRIPINA MONTES DEL VALLE,CALLE 95 #42 B 44,6.2863543,-75.5503877,01COMUNA 1 POPULAR,exacto,0.0607,21.0526,0.0584,12.2807,0.211,27.2727,0.1949,22.2222,0.1029,29.0909,0.2865,26.3304,0.2935,15.7229,0.2487,26.3288
2_4,MEDELLIN,2,4.0,I.E.FEDERICO CARRASQUILLA,4,5,4,4,4,13,188,568,271,I.E.FEDERICO CARRASQUILLA,I.E.FEDERICO CARRASQUILLA,Cra 45 # 108-110,6.2985923,-75.5494982,01COMUNA 1 POPULAR,exacto,0.0607,21.0526,0.0167,3.5088,0.1758,22.7273,0.13,14.8148,0.0257,7.2727,0.1134,10.4213,0.3354,17.969,0.0907,9.6031
2_5,MEDELLIN,2,5.0,I.E.GUADALUPE,3,7,6,35,3,39,362,713,471,I.E.GUADALUPE,I.E.GUADALUPE,Cra 42B 95A -23,6.2868493,-75.550005,01COMUNA 1 POPULAR,exacto,0.0455,15.7895,0.146,30.7018,0.2461,31.8182,0.1949,22.2222,0.0193,5.4545,0.2183,20.0665,0.421,22.5562,0.1577,16.6903
20_1,MEDELLIN,20,1.0,CENTRO COMERCIAL SAN DIEGO,135,43,64,656,321,197,1673,1025,4611,CENTRO COMERCIAL SAN DIEGO,CENTRO COMERCIAL SAN DIEGO,CL 34 # 43-66,6.2341186,-75.5686026,10COMUNA 10 LA CANDELARIA,exacto,2.0486,72.5806,2.7372,85.528,1.512,53.75,2.0793,82.0513,2.0646,80.6533,1.0091,54.2829,0.6053,33.1501,1.5435,61.8843
20_2,MEDELLIN,20,2.0,ALCALDIA MUNICIPAL (SOTANO),32,8,10,80,54,108,912,1050,1894,ALCALDIA MUNICIPAL (SOTANO),ALCALDIA MUNICIPAL (SOTANO),CL 44 # 52-165,6.2447361,-75.5737805,10COMUNA 10 LA CANDELARIA,exacto,0.4856,17.2043,0.3338,10.4302,0.2813,10.0,0.3249,12.8205,0.3473,13.5678,0.5501,29.5912,0.6201,33.9586,0.634,25.4194
20_3,MEDELLIN,20,3.0,SENA,4,4,2,18,16,30,314,485,705,SENA,SENA,CL 51 # 57-70,6.2546931,-75.5748275,10COMUNA 10 LA CANDELARIA,exacto,0.0607,2.1505,0.0751,2.3468,0.1406,5.0,0.065,2.5641,0.1029,4.0201,0.1894,10.1882,0.2864,15.6856,0.236,9.4618
20_4,MEDELLIN,20,4.0,UNIVERSIDAD CLARETIANA,14,25,2,13,5,4,123,476,178,UNIVERSIDAD CLARETIANA,UNIVERSIDAD CLARETIANA,CARRERA 55A # 61-06,6.2604137,-75.5701756,10COMUNA 10 LA CANDELARIA,exacto,0.2124,7.5269,0.0542,1.6949,0.879,31.25,0.065,2.5641,0.0322,1.2563,0.0742,3.9909,0.2811,15.3946,0.0596,2.3889
20_5,MEDELLIN,20,5.0,PLAZA MINORISTA JOSE MARIA VILLA,1,0,0,0,2,4,60,56,63,PLAZA MINORISTA JOSE MARIA VILLA,,,6.257058,-75.573546,,,0.0152,0.5376,0.0,0.0,0.0,0.0,0.0,0.0,0.0129,0.5025,0.0362,1.9468,0.0331,1.8111,0.0211,0.8455
21_1,MEDELLIN,21,1.0,INSTITUTO JORGE ROBLEDO,120,32,54,369,113,68,995,945,2272,INSTITUTO JORGE ROBLEDO,INSTITUTO JORGE ROBLEDO,CL 51 # 65 - 72,6.2573614,-75.5820395,11COMUNA 11 LAURELES,exacto,1.8209,27.1493,1.5397,28.1465,1.1252,20.6452,1.7544,35.5263,0.7268,23.299,0.6002,18.4704,0.5581,25.3351,0.7605,20.6377
21_2,MEDELLIN,21,2.0,I.E. MATER DEI,95,30,28,408,161,153,1276,579,3072,I.E. MATER DEI,INST.EDUC. MATER DEI,KR 68 # 42-70,6.247456,-75.5860724,11COMUNA 11 LAURELES,fuzzy,1.4416,21.4932,1.7024,31.1213,1.0549,19.3548,0.9097,18.4211,1.0355,33.1959,0.7696,23.6867,0.3419,15.5228,1.0283,27.9044
21_3,MEDELLIN,21,3.0,I.E. MARCO FIDEL SUAREZ,84,20,28,251,82,97,1067,821,1989,I.E. MARCO FIDEL SUAREZ,,,6.25764,-75.586,,,1.2747,19.0045,1.0473,19.1457,0.7032,12.9032,0.9097,18.4211,0.5274,16.9072,0.6436,19.8069,0.4848,22.0107,0.6658,18.067
21_4,MEDELLIN,21,4.0,COL. CALASANZ (FEM) CAMPESTRE ESCOLAPIAS,80,51,25,187,81,107,1361,865,2454,COL. CALASANZ (FEM) CAMPESTRE ESCOLAPIAS,COLEGIO CALASANZ FEMENINO,CALLE 55 No 77-71,6.2664968,-75.5902849,11COMUNA 11 LAURELES,manual,1.214,18.0995,0.7803,14.2639,1.7932,32.9032,0.8122,16.4474,0.521,16.701,0.8209,25.2645,0.5108,23.1903,0.8215,22.2909
21_5,MEDELLIN,21,5.0,COL. SAN IGNACIO DE LOYOLA - SD MAYORES,32,12,12,60,31,23,437,337,765,COL. SAN IGNACIO DE LOYOLA - SD MAYORES,COL SAN IGNACIO SD MAYORES,CLL 48 No 68-98,6.2546717,-75.5866224,11COMUNA 11 LAURELES,fuzzy,0.4856,7.2398,0.2504,4.5767,0.4219,7.7419,0.3899,7.8947,0.1994,6.3918,0.2636,8.1121,0.199,9.0349,0.2561,6.9489
21_6,MEDELLIN,21,6.0,SEC. ESC. CARLOS OBANDO VELASCO,31,6,5,36,16,37,224,148,406,SEC. ESC. CARLOS OBANDO VELASCO,SEC. ESC. CARLOS OBANDO VELASCO,CRA 67A No 42-24,6.2466932,-75.5855597,11COMUNA 11 LAURELES,exacto,0.4704,7.0136,0.1502,2.746,0.211,3.871,0.1624,3.2895,0.1029,3.299,0.1351,4.1582,0.0874,3.9678,0.1359,3.6879
21_7,MEDELLIN,21,7.0,INST. UNIVERSITARIA SALAZAR Y HERRERA,0,4,0,0,1,2,27,35,51,INST. UNIVERSITARIA SALAZAR Y HERRERA,INST. UNIVERSITARIA SALAZAR Y HERRERA,CRA 70 No 52-49,6.2604592,-75.5853259,11COMUNA 11 LAURELES,exacto,0.0,0.0,0.0,0.0,0.1406,2.5806,0.0,0.0,0.0064,0.2062,0.0163,0.5012,0.0207,0.9383,0.0171,0.4633
22_1,MEDELLIN,22,1.0,SEC.ESC. AGRUPACION COLOMBIA,72,25,27,298,139,115,1380,626,3433,SEC.ESC. AGRUPACION COLOMBIA,SEC.ESC. AGRUPACION COLOMBIA,CL 44A # 75-68,6.2505392,-75.5949142,11COMUNA 11 LAURELES,exacto,1.0926,11.557,1.2434,16.8839,0.879,10.1215,0.8772,11.0656,0.894,15.583,0.8324,19.5384,0.3697,17.4325,1.1492,20.9074
22_2,MEDELLIN,22,2.0,I.E. LUCRECIO JARAMILLO VELEZ,164,33,86,671,353,309,1872,640,5442,I.E. LUCRECIO JARAMILLO VELEZ,I.E. LUCRECIO JARAMILLO VELEZ,KR 79 # 38-59,6.2462873,-75.5992214,11COMUNA 11 LAURELES,exacto,2.4886,26.3242,2.7998,38.017,1.1603,13.3603,2.794,35.2459,2.2704,39.574,1.1291,26.5043,0.3779,17.8223,1.8217,33.1425
22_3,MEDELLIN,22,3.0,COLEGIO BETHLEMITAS,105,50,44,230,132,122,887,408,2263,COLEGIO BETHLEMITAS,COLEGIO BETLEHEMITAS,TRV 36 No 72 - 93,6.2408545,-75.5955852,11COMUNA 11 LAURELES,fuzzy,1.5933,16.8539,0.9597,13.0312,1.7581,20.2429,1.4295,18.0328,0.849,14.7982,0.535,12.5584,0.2409,11.3617,0.7575,13.782
22_4,MEDELLIN,22,4.0,COL. SAN IGNACIO DE LOYOLA - SD INFANTIL,48,29,15,147,60,58,592,449,980,COL. SAN IGNACIO DE LOYOLA - SD INFANTIL,COL.SAN IGNACIO (SEC.INFANTIL),CALLE 47D No. 75-83,6.254278,-75.59275,11COMUNA 11 LAURELES,fuzzy,0.7284,7.7047,0.6134,8.3286,1.0197,11.7409,0.4873,6.1475,0.3859,6.7265,0.3571,8.3817,0.2651,12.5035,0.3281,5.9683
22_5,MEDELLIN,22,5.0,CORP. UNIVERSITARIA ADVENTISTA - UNAC,50,28,16,123,58,66,818,398,1486,CORP. UNIVERSITARIA ADVENTISTA - UNAC,,,6.240713,-75.608806,,,0.7587,8.0257,0.5132,6.9688,0.9845,11.336,0.5198,6.5574,0.373,6.5022,0.4934,11.5815,0.235,11.0833,0.4974,9.0499
22_6,MEDELLIN,22,6.0,UNIVERSIDAD PONTIFICIA BOLIVARIANA,184,82,56,296,150,144,1514,1070,2816,UNIVERSIDAD PONTIFICIA BOLIVARIANA,UNIVERSIDAD PONTIFICIA BOLIVARIANA,CIR 1 No 70 - 01,6.243,-75.589,11COMUNA 11 LAURELES,exacto,2.7921,29.5345,1.2351,16.7705,2.8833,33.1984,1.8194,22.9508,0.9648,16.8161,0.9132,21.4357,0.6319,29.7967,0.9427,17.1498
23_1,MEDELLIN,23,1.0,SEC. ESC. SANTA LUCIA,42,27,17,173,50,64,1422,865,2184,SEC. ESC. SANTA LUCIA,SEC. ESC. SANTA LUCIA,KR 89A # 47DD-71,6.2581429,-75.6060178,12COMUNA 12 LA AMERICA,exacto,0.6373,12.3167,0.7219,14.9138,0.9494,19.2857,0.5523,12.8788,0.3216,14.245,0.8577,21.3417,0.5108,17.262,0.7311,19.1831
23_2,MEDELLIN,23,2.0,I.E. CONCEJO DE MEDELLIN,164,38,71,657,188,194,2386,1449,4830,I.E. CONCEJO DE MEDELLIN,I.E. CONCEJO DE MEDELLIN,KR 82 # 47A-65,6.2584902,-75.6004229,12COMUNA 12 LA AMERICA,exacto,2.4886,48.0938,2.7414,56.6379,1.3361,27.1429,2.3067,53.7879,1.2092,53.5613,1.4392,35.8097,0.8557,28.9164,1.6168,42.4242
23_3,MEDELLIN,23,3.0,I.E. LA PIEDAD,38,15,11,149,53,57,946,798,1563,I.E. LA PIEDAD,I.E. LA PIEDAD,KR 81 NO 54 71,6.26924,-75.596553,12COMUNA 12 LA AMERICA,exacto,0.5766,11.1437,0.6217,12.8448,0.5274,10.7143,0.3574,8.3333,0.3409,15.0997,0.5706,14.1978,0.4712,15.925,0.5232,13.7286
23_4,MEDELLIN,23,4.0,I.E.SANTA ROSA DE LIMA,45,17,16,95,23,56,698,698,1051,I.E.SANTA ROSA DE LIMA,I.E.SANTA ROSA DE LIMA,CALLE 45G No. 80-95,6.255734,-75.599375,12COMUNA 12 LA AMERICA,exacto,0.6829,13.1965,0.3964,8.1897,0.5977,12.1429,0.5198,12.1212,0.1479,6.5527,0.421,10.4758,0.4122,13.9294,0.3518,9.2314
23_5,MEDELLIN,23,5.0,IE LOLA GONZALEZ,24,19,7,51,14,28,594,558,764,IE LOLA GONZALEZ,IE LOLA GONZALEZ,CLL 47F No 94-63,6.2574157,-75.6109333,12COMUNA 12 LA AMERICA,exacto,0.3642,7.0381,0.2128,4.3966,0.6681,13.5714,0.2274,5.303,0.09,3.9886,0.3583,8.9149,0.3295,11.1355,0.2557,6.7106
23_6,MEDELLIN,23,6.0,INST. FERRINI - SD CALASANZ,28,24,10,35,23,44,617,643,993,INST. FERRINI - SD CALASANZ,INST FERRINI CALASANZ,CLL 51A No 81B - 33,6.2649823,-75.5988665,12COMUNA 12 LA AMERICA,fuzzy,0.4249,8.2111,0.146,3.0172,0.8439,17.1429,0.3249,7.5758,0.1479,6.5527,0.3722,9.2601,0.3797,12.8318,0.3324,8.722
24_1,MEDELLIN,24,1.0,COLEGIO LATINO,35,9,16,220,83,124,1136,515,2472,COLEGIO LATINO,,,6.243248,-75.611431,,,0.5311,14.0,0.918,21.8254,0.3165,7.6271,0.5198,13.913,0.5338,22.9282,0.6852,20.0849,0.3041,15.5825,0.8275,23.6419
24_2,MEDELLIN,24,2.0,SEC.ESC.RAFAEL URIBE URIBE,40,8,14,153,25,33,433,293,680,SEC.ESC.RAFAEL URIBE URIBE,SEC.ESC.RAFAEL URIBE URIBE,CARRERA 83 No. 42C - 54,6.2486908,-75.6043026,12COMUNA 12 LA AMERICA,exacto,0.607,16.0,0.6384,15.1786,0.2813,6.7797,0.4548,12.1739,0.1608,6.9061,0.2612,7.6556,0.173,8.8654,0.2276,6.5034
24_3,MEDELLIN,24,3.0,SEC. ESC. PEDRO DE CASTRO,19,4,17,283,59,81,777,304,1874,SEC. ESC. PEDRO DE CASTRO,SEC. ESC. PEDRO DE CASTRO,CL 40 # 86A-101,6.2486612,-75.6081857,12COMUNA 12 LA AMERICA,exacto,0.2883,7.6,1.1808,28.0754,0.1406,3.3898,0.5523,14.7826,0.3795,16.2983,0.4687,13.7376,0.1795,9.1982,0.6273,17.9227
24_4,MEDELLIN,24,4.0,I.E.FRANCISCO ANTONIO ZEA,43,21,16,145,70,87,679,369,1256,I.E.FRANCISCO ANTONIO ZEA,I.E.FRANCISCO ANTONIO ZEA,KR 82 # 35-40,6.243983,-75.6039945,12COMUNA 12 LA AMERICA,exacto,0.6525,17.2,0.605,14.3849,0.7384,17.7966,0.5198,13.913,0.4502,19.337,0.4096,12.005,0.2179,11.1649,0.4204,12.0122
24_5,MEDELLIN,24,5.0,I.E AMERICA,16,15,14,63,25,20,467,315,653,I.E AMERICA,I.E AMERICA,CALLE 34 EE No. 91-20,6.245908,-75.615729,12COMUNA 12 LA AMERICA,exacto,0.2428,6.4,0.2629,6.25,0.5274,12.7119,0.4548,12.1739,0.1608,6.9061,0.2817,8.2567,0.186,9.531,0.2186,6.2452
24_6,MEDELLIN,24,6.0,C4TA CIUDADELA,10,8,4,28,4,19,251,337,364,C4TA CIUDADELA,,,6.253391,-75.613906,,,0.1517,4.0,0.1168,2.7778,0.2813,6.7797,0.13,3.4783,0.0257,1.105,0.1514,4.4378,0.199,10.1967,0.1218,3.4813
24_7,MEDELLIN,24,7.0,LICEO SALAZAR Y HERRERA,87,53,34,116,96,112,1913,1172,3157,LICEO SALAZAR Y HERRERA,LICEO SALAZAR Y HERRERA,CLL 42C No 86-17,6.2487494,-75.6059736,12COMUNA 12 LA AMERICA,exacto,1.3202,34.8,0.484,11.5079,1.8636,44.9153,1.1046,29.5652,0.6174,26.5193,1.1539,33.8225,0.6921,35.4614,1.0568,30.1932
25_1,MEDELLIN,25,1.0,I.E. BLANQUIZAL,4,1,4,9,8,14,273,636,464,I.E. BLANQUIZAL,I.E. BLANQUIZAL,KR 92 DD # 57F - 43,6.2752093,-75.6056542,13COMUNA 13 SAN JAVIER,exacto,0.0607,5.7143,0.0376,2.9508,0.0352,2.0833,0.13,7.6923,0.0515,7.4074,0.1647,7.6342,0.3756,16.6231,0.1553,8.064
25_2,MEDELLIN,25,2.0,SEC. ESC. REPUBLICA DE PANAMA,10,7,10,43,14,33,721,528,1017,SEC. ESC. REPUBLICA DE PANAMA,SEC. ESC. REPUBLICA DE PANAMA,KR 88 # 49DD-70,6.2630895,-75.6065877,13COMUNA 13 SAN JAVIER,exacto,0.1517,14.2857,0.1794,14.0984,0.2461,14.5833,0.3249,19.2308,0.09,12.963,0.4349,20.1622,0.3118,13.8003,0.3404,17.6747
25_3,MEDELLIN,25,3.0,I.E JUAN XXIII,5,13,11,21,8,11,381,630,462,I.E JUAN XXIII,I.E JUAN XXIII,CALLE 49 No 96A-11,6.261773,-75.610309,13COMUNA 13 SAN JAVIER,exacto,0.0759,7.1429,0.0876,6.8852,0.4571,27.0833,0.3574,21.1538,0.0515,7.4074,0.2298,10.6544,0.372,16.4663,0.1547,8.0292
25_4,MEDELLIN,25,4.0,SEC. ESC. MONSEÑOR PERDOMO,25,15,16,113,39,69,1073,794,2013,SEC. ESC. MONSEÃ‘OR PERDOMO,SEC. ESC. MONSEÑOR PERDOMO,CL 44 # 97-14,6.2558928,-75.614051,13COMUNA 13 SAN JAVIER,fuzzy,0.3794,35.7143,0.4715,37.0492,0.5274,31.25,0.5198,30.7692,0.2508,36.1111,0.6472,30.0056,0.4689,20.7527,0.6738,34.9844
25_5,MEDELLIN,25,5.0,SEC.ESC.PIO XII,17,10,10,108,33,55,832,776,1364,SEC.ESC.PIO XII,SEC.ESC.PIO XII,KR 98 # 44-52,6.2564304,-75.614097,13COMUNA 13 SAN JAVIER,exacto,0.258,24.2857,0.4506,35.4098,0.3516,20.8333,0.3249,19.2308,0.2122,30.5556,0.5018,23.2662,0.4583,20.2823,0.4566,23.7052
25_6,MEDELLIN,25,6.0,I.E.STELLA VELEZ LONDOÑO,6,1,1,9,5,3,179,220,184,I.E.STELLA VELEZ LONDOÃ‘O,I.E.STELLA VELEZ LONDOÑO,CALLE 48DD No. 99D-118,6.2683087,-75.6161352,13COMUNA 13 SAN JAVIER,fuzzy,0.091,8.5714,0.0376,2.9508,0.0352,2.0833,0.0325,1.9231,0.0322,4.6296,0.108,5.0056,0.1299,5.7501,0.0616,3.1978
25_7,MEDELLIN,25,7.0,SEC ESC JUAN DE DIOS ARANZAZU,3,1,0,2,1,16,117,242,250,SEC ESC JUAN DE DIOS ARANZAZU,SEC ESC JUAN DE DIOS ARANZAZU,CLL 42 No 105 - 42,6.2559273,-75.6200164,13COMUNA 13 SAN JAVIER,exacto,0.0455,4.2857,0.0083,0.6557,0.0352,2.0833,0.0,0.0,0.0064,0.9259,0.0706,3.2718,0.1429,6.3251,0.0837,4.3448
26_1,MEDELLIN,26,1.0,I.E.LA INDEPENDENCIA,8,12,8,45,27,61,783,1105,1697,I.E.LA INDEPENDENCIA,I.E.LA INDEPENDENCIA,CALLE 39D No. 112 - 81,6.2529775,-75.623372,13COMUNA 13 SAN JAVIER,exacto,0.1214,21.0526,0.1878,23.1959,0.4219,40.0,0.2599,19.5122,0.1737,25.2336,0.4723,19.0836,0.6525,21.5274,0.5681,27.3445
26_2,MEDELLIN,26,2.0,SEC.ESC.EL SOCORRO,5,1,1,50,13,21,388,717,455,SEC.ESC.EL SOCORRO,SEC.ESC.EL SOCORRO,CARRERA 102B No. 47B - 32,6.2592401,-75.6182627,13COMUNA 13 SAN JAVIER,exacto,0.0759,13.1579,0.2086,25.7732,0.0352,3.3333,0.0325,2.439,0.0836,12.1495,0.234,9.4565,0.4234,13.9684,0.1523,7.3316
26_3,MEDELLIN,26,3.0,SEC. ESC. BETANIA,3,3,9,27,16,35,1019,719,1067,SEC. ESC. BETANIA,SEC.ESC.MIXTA BETANIA,CRA 110 A  No. 34 A 82,6.2462225,-75.6226727,13COMUNA 13 SAN JAVIER,fuzzy,0.0455,7.8947,0.1127,13.9175,0.1055,10.0,0.2924,21.9512,0.1029,14.9533,0.6146,24.8355,0.4246,14.0074,0.3572,17.193
26_4,MEDELLIN,26,4.0,I.E.EL CORAZON,7,0,2,6,6,18,314,364,292,I.E.EL CORAZON,I.E.EL CORAZON,CARRERA 116F No. 34AA - 131,6.2475408,-75.6299079,13COMUNA 13 SAN JAVIER,exacto,0.1062,18.4211,0.025,3.0928,0.0,0.0,0.065,4.878,0.0386,5.6075,0.1894,7.6529,0.215,7.0914,0.0977,4.7051
26_5,MEDELLIN,26,5.0,I.E.EDUARDO SANTOS,2,4,1,24,15,21,326,494,465,I.E.EDUARDO SANTOS,I.E.EDUARDO SANTOS,CALLE 43 No. 120C - 77,6.2587397,-75.6289365,13COMUNA 13 SAN JAVIER,exacto,0.0303,5.2632,0.1001,12.3711,0.1406,13.3333,0.0325,2.439,0.0965,14.0187,0.1966,7.9454,0.2917,9.624,0.1557,7.4927
26_6,MEDELLIN,26,6.0,I.E. CARLOS VIECO ORTIZ,11,5,6,39,14,43,519,795,828,I.E. CARLOS VIECO ORTIZ,I.E.CARLOS VIECO,CALLE 40 No. 105 - 36,6.2547856,-75.6198539,13COMUNA 13 SAN JAVIER,fuzzy,0.1669,28.9474,0.1627,20.1031,0.1758,16.6667,0.1949,14.6341,0.09,13.0841,0.313,12.6493,0.4695,15.488,0.2772,13.3419
26_7,MEDELLIN,26,7.0,SEC. ESC. AMOR AL NIÑO,1,4,3,3,4,16,193,452,312,SEC. ESC. AMOR AL NIÃ‘O,SEDE AMOR AL NIÑO,Calle 39 D No. 112-81( INT. 110),6.2530412,-75.6244561,13COMUNA 13 SAN JAVIER,fuzzy,0.0152,2.6316,0.0125,1.5464,0.1406,13.3333,0.0975,7.3171,0.0257,3.7383,0.1164,4.7039,0.2669,8.8058,0.1044,5.0274
26_8,MEDELLIN,26,8.0,I.E FUNDADORES,1,1,11,0,12,23,531,443,1037,I.E FUNDADORES,,,6.259367,-75.616616,,,0.0152,2.6316,0.0,0.0,0.0352,3.3333,0.3574,26.8293,0.0772,11.215,0.3203,12.9417,0.2616,8.6304,0.3471,16.7096
26_9,MEDELLIN,26,9.0,SEC. ESC. VEINTE DE JULIO,0,0,0,0,0,3,30,44,53,SEC. ESC. VEINTE DE JULIO,SEC.ESC.JACKELINE KENNEDY,CL 17 # 73-37,6.2225851,-75.5955838,16COMUNA 16 BELEN,manual,0.0,0.0,0.0,0.0,0.0,0.0,0.0,0.0,0.0,0.0,0.0181,0.7312,0.026,0.8572,0.0177,0.854
27_1,MEDELLIN,27,1.0,PARQUE COMERCIAL EL TESORO,116,31,73,630,1100,189,1431,253,5369,PARQUE COMERCIAL EL TESORO,,,6.196409,-75.558897,,,1.7602,26.7281,2.6287,34.9224,1.09,25.4098,2.3717,35.6098,7.0749,29.4039,0.8631,29.3178,0.1494,30.9291,1.7973,31.1644
27_2,MEDELLIN,27,2.0,COL.MARYMOUNT,181,46,74,747,1794,254,1888,242,7138,COL.MARYMOUNT,COL.MARYMOUNT,CALLE 7 No. 25-64,6.2056287,-75.5561722,14COMUNA 14 EL POBLADO,exacto,2.7466,41.7051,3.1169,41.408,1.6174,37.7049,2.4042,36.0976,11.5385,47.9551,1.1388,38.6806,0.1429,29.5844,2.3894,41.4326
27_3,MEDELLIN,27,3.0,COLEGIO SAN LUCAS,69,25,28,264,592,85,905,121,2907,COLEGIO SAN LUCAS,COLEGIO SAN LUCAS,CLL 20 SUR No 25B-91,6.1813493,-75.5664715,14COMUNA 14 EL POBLADO,exacto,1.047,15.8986,1.1016,14.6341,0.879,20.4918,0.9097,13.6585,3.8076,15.8246,0.5459,18.5413,0.0715,14.7922,0.9731,16.8737
27_4,MEDELLIN,27,4.0,SEC. ESC. GUILLERMO ECHAVARRIA MISAS,51,14,23,163,96,42,394,165,998,SEC. ESC. GUILLERMO ECHAVARRIA MISAS,ESC GUILLERMO ECHAVARRIA MISAS,CRA 43B No 9-61,6.2106366,-75.5714951,14COMUNA 14 EL POBLADO,fuzzy,0.7739,11.7512,0.6801,9.0355,0.4923,11.4754,0.7472,11.2195,0.6174,2.5662,0.2376,8.0721,0.0974,20.1711,0.3341,5.7929
27_5,MEDELLIN,27,5.0,COLEGIO CAMPESTRE MANZANARES,8,3,2,0,119,28,121,22,479,COLEGIO CAMPESTRE MANZANARES,COLEGIO CAMPESTRE MANZANARES,CARRERA 16 No 12 SUR 28,6.1848033,-75.5562621,14COMUNA 14 EL POBLADO,exacto,0.1214,1.8433,0.0,0.0,0.1055,2.459,0.065,0.9756,0.7654,3.181,0.073,2.479,0.013,2.6895,0.1603,2.7804
27_6,MEDELLIN,27,6.0,COLEGIO SAN JOSE DE LA SALLE,9,3,5,0,40,27,142,15,337,COLEGIO SAN JOSE DE LA SALLE,COLEGIO SAN JOSE DE LA SALLE,CALLE 9 No 10 337,6.2042579,-75.5465305,14COMUNA 14 EL POBLADO,exacto,0.1366,2.0737,0.0,0.0,0.1055,2.459,0.1624,2.439,0.2573,1.0692,0.0857,2.9092,0.0089,1.8337,0.1128,1.9561
28_1,MEDELLIN,28,1.0,POLITECNICO JAIME ISAZA CADAVID,153,57,77,495,406,146,1553,844,4082,POLITECNICO JAIME ISAZA CADAVID,POLITECNICO JAIME ISAZA CADAVID,CARRERA 48 No. 7 - 151,6.2092851,-75.5766121,14COMUNA 14 EL POBLADO,exacto,2.3217,16.2248,2.0654,12.4216,2.0042,24.8908,2.5016,17.4603,2.6113,10.0099,0.9367,20.3352,0.4984,39.7363,1.3664,16.6646
28_2,MEDELLIN,28,2.0,I.E. INEM JOSE FELIX DE RESTREPO,229,44,86,1078,967,194,1476,380,4551,I.E. INEM JOSE FELIX DE RESTREPO,INEM JOSE FELIX DE RESTREPO,CARRERA 48 No. 1 - 125,6.2067035,-75.577043,14COMUNA 14 EL POBLADO,fuzzy,3.475,24.2842,4.498,27.0514,1.5471,19.214,2.794,19.5011,6.2194,23.8412,0.8903,19.327,0.2244,17.8908,1.5234,18.5793
28_3,MEDELLIN,28,3.0,UNIVERSIDAD EAFIT,239,47,133,1157,1158,257,1735,352,6660,UNIVERSIDAD EAFIT,UNIVERSIDAD EAFIT,KR 49 # 7 SUR 50,6.2000877,-75.5793923,14COMUNA 14 EL POBLADO,exacto,3.6267,25.3446,4.8277,29.0339,1.6526,20.524,4.321,30.1587,7.4479,28.5503,1.0465,22.7183,0.2079,16.5725,2.2294,27.1892
28_4,MEDELLIN,28,4.0,COL DE LA COMPAÑIA DE MARIA LA ENSEÑANZA,101,25,61,564,760,183,1094,196,4789,COL DE LA COMPAÃ‘IA DE MARIA LA ENSEÃ‘ANZA,COL DE LA COMPAÑIA DE MARIA LA ENSEÑANZA,CALLE 9 SUR No 37-345,6.1945762,-75.5739114,14COMUNA 14 EL POBLADO,fuzzy,1.5326,10.7105,2.3533,14.1531,0.879,10.917,1.9818,13.8322,4.8881,18.7377,0.6599,14.325,0.1157,9.2279,1.6031,19.5509
28_5,MEDELLIN,28,5.0,COL. SAN JOSE DE LAS VEGAS,214,49,80,691,678,161,1639,332,4015,COL. SAN JOSE DE LAS VEGAS,SAN JOSE DE LAS VEGAS,CRA 48 No 7SUR-52,6.1986132,-75.5768624,14COMUNA 14 EL POBLADO,fuzzy,3.2473,22.6935,2.8833,17.34,1.7229,21.3974,2.5991,18.1406,4.3607,16.716,0.9886,21.4613,0.1961,15.6309,1.344,16.3911
28_6,MEDELLIN,28,6.0,COLEGIO PINARES ALTOVERDE,7,7,4,0,87,12,140,20,398,COLEGIO PINARES ALTOVERDE,COLEGIO PINARES ALTOVERDE,CARRERA 35 No 9 SUR 160,6.1913367,-75.5705791,14COMUNA 14 EL POBLADO,exacto,0.1062,0.7423,0.0,0.0,0.2461,3.0568,0.13,0.907,0.5596,2.145,0.0844,1.8332,0.0118,0.9416,0.1332,1.6248
29_1,MEDELLIN,29,1.0,I.E. CAMILO C. RESTREPO,14,6,5,44,25,61,624,518,1133,I.E. CAMILO C. RESTREPO,COLEGIO CAMILO C RESTREPO,Cra 65 D # 24-40,6.2258167,-75.5851799,15COMUNA 15 GUAYABAL,fuzzy,0.2124,7.5269,0.1836,5.6995,0.211,6.4516,0.1624,6.4103,0.1608,7.3099,0.3764,11.4098,0.3059,12.0577,0.3793,10.8587
29_2,MEDELLIN,29,2.0,I.E.BENJAMIN HERRERA,29,12,23,156,41,236,866,667,1853,I.E.BENJAMIN HERRERA,I.E.BENJAMIN HERRERA,CL 25 # 52-140,6.2265428,-75.5797192,15COMUNA 15 GUAYABAL,exacto,0.4401,15.5914,0.6509,20.2073,0.4219,12.9032,0.7472,29.4872,0.2637,11.9883,0.5223,15.8347,0.3939,15.5261,0.6203,17.7592
29_3,MEDELLIN,29,3.0,I.E.CRISTO REY,42,19,19,210,73,142,1178,738,2363,I.E.CRISTO REY,I.E.CRISTO REY,CALLE 2 SUR No. 50D - 30,6.2050568,-75.5816466,15COMUNA 15 GUAYABAL,exacto,0.6373,22.5806,0.8762,27.2021,0.6681,20.4301,0.6173,24.359,0.4695,21.345,0.7105,21.5396,0.4358,17.1788,0.791,22.6471
29_4,MEDELLIN,29,4.0,SEC. ESC. REPUBLICA DE COSTA RICA,30,9,9,72,91,96,888,703,1717,SEC. ESC. REPUBLICA DE COSTA RICA,SECCION ESC REPUBLICA DE COSTA RICA,CARRERA 52 No 7 SUR -23,6.2028216,-75.5881928,15COMUNA 15 GUAYABAL,fuzzy,0.4552,16.129,0.3004,9.3264,0.3165,9.6774,0.2924,11.5385,0.5853,26.6082,0.5356,16.237,0.4151,16.3641,0.5748,16.4558
29_5,MEDELLIN,29,5.0,SEC.ESC.LA COLINA,24,17,8,106,34,65,751,708,1364,SEC.ESC.LA COLINA,SEC.ESC.LA COLINA,KR 52C 12A SUR -23,6.1974991,-75.5917763,15COMUNA 15 GUAYABAL,exacto,0.3642,12.9032,0.4423,13.7306,0.5977,18.2796,0.2599,10.2564,0.2187,9.9415,0.453,13.7319,0.4181,16.4804,0.4566,13.0726
29_6,MEDELLIN,29,6.0,I.E. LA SALLE DE CAMPOAMOR,30,19,8,145,53,69,872,586,1470,I.E. LA SALLE DE CAMPOAMOR,I.E. LA SALLE CAMPO AMOR,CARRERA 65B No. 4 - 49,6.2126656,-75.5876069,15COMUNA 15 GUAYABAL,fuzzy,0.4552,16.129,0.605,18.7824,0.6681,20.4301,0.2599,10.2564,0.3409,15.4971,0.526,15.9444,0.3461,13.6406,0.4921,14.0886
29_7,MEDELLIN,29,7.0,SEC ESC CRISTO REY APOLO,17,11,6,39,24,39,289,373,531,SEC ESC CRISTO REY APOLO,SEC ESC CRISTO REY APOLO,CRA 50G No 3SUR-34,6.2054535,-75.5837377,15COMUNA 15 GUAYABAL,exacto,0.258,9.1398,0.1627,5.0518,0.3868,11.828,0.1949,7.6923,0.1544,7.0175,0.1743,5.2843,0.2203,8.6825,0.1778,5.0891
29_8,MEDELLIN,29,8.0,SEC. ESC. SANTISIMA TRINIDAD,0,0,0,0,1,0,1,3,3,SEC. ESC. SANTISIMA TRINIDAD,,,6.227965,-75.586401,,,0.0,0.0,0.0,0.0,0.0,0.0,0.0,0.0,0.0064,0.2924,0.0006,0.0183,0.0018,0.0698,0.001,0.0288
3_1,MEDELLIN,3,1.0,I.E.  ASIA IGNACIANA,14,6,10,37,27,196,752,1585,1524,I.E.  ASIA IGNACIANA,I.E.  ASIA IGNACIANA,CL 122 # 51B-30,6.3062054,-75.5550912,02COMUNA 2 SANTA CRUZ,exacto,0.2124,36.8421,0.1544,34.9057,0.211,24.0,0.3249,35.7143,0.1737,36.4865,0.4536,32.0273,0.936,36.792,0.5102,39.0369
3_2,MEDELLIN,3,2.0,SEC.ESC.  MANUEL URIBE ANGEL,15,8,10,44,32,94,834,1578,1241,SEC.ESC.  MANUEL URIBE ANGEL,SEC.ESC.  MANUEL URIBE ANGEL,KR 49A #107-65,6.2980908,-75.5537062,02COMUNA 2 SANTA CRUZ,exacto,0.2276,39.4737,0.1836,41.5094,0.2813,32.0,0.3249,35.7143,0.2058,43.2432,0.503,35.5196,0.9319,36.6295,0.4154,31.7879
3_3,MEDELLIN,3,3.0,SEC. ESC. FIDEL ANTONIO SALDARRIAGA,5,10,6,25,9,38,562,783,869,SEC. ESC. FIDEL ANTONIO SALDARRIAGA,SEC. ESC. FIDEL ANTONIO SALDARRIAGA,CRA 48 No 103B-01,6.2939796,-75.5538734,02COMUNA 2 SANTA CRUZ,exacto,0.0759,13.1579,0.1043,23.5849,0.3516,40.0,0.1949,21.4286,0.0579,12.1622,0.339,23.9353,0.4624,18.1755,0.2909,22.2592
3_4,MEDELLIN,3,4.0,SEC ESC LA FRONTERA,4,1,2,0,6,13,200,362,270,SEC ESC LA FRONTERA,SEC ESC LA FRONTERA,CALLE 122 No 50A 14,6.3060177,-75.5526666,02COMUNA 2 SANTA CRUZ,exacto,0.0607,10.5263,0.0,0.0,0.0352,4.0,0.065,7.1429,0.0386,8.1081,0.1206,8.5179,0.2138,8.403,0.0904,6.916
30_1,MEDELLIN,30,1.0,I.E. FATIMA NUTIBARA,73,24,31,278,98,142,1258,726,2874,I.E. FATIMA NUTIBARA,I.E. FATIMA NUTIBARA,CARRERA 65A No. 32B - 120,6.236839,-75.5829618,16COMUNA 16 BELEN,exacto,1.1077,17.9803,1.16,17.7183,0.8439,15.894,1.0071,21.3793,0.6303,17.8182,0.7588,16.6954,0.4287,15.9877,0.9621,18.3842
30_10,MEDELLIN,30,10.0,INSTITUCION EDUCATIVA ROSALIA SUAREZ,20,12,4,0,31,29,417,303,683,INSTITUCION EDUCATIVA ROSALIA SUAREZ,INSTITUCION EDUCATIVA ROSALIA SUAREZ,CALLE 30A No 80 18,6.232214,-75.6001044,16COMUNA 16 BELEN,exacto,0.3035,4.9261,0.0,0.0,0.4219,7.947,0.13,2.7586,0.1994,5.6364,0.2515,5.5342,0.1789,6.6725,0.2286,4.369
30_2,MEDELLIN,30,2.0,SEC. ESC. SOFIA OSPINA DE NAVARRO,52,8,22,206,127,136,693,271,2058,SEC. ESC. SOFIA OSPINA DE NAVARRO,ESC.SOFIA OSPINA DE NAVARRO,CALLE 32 No. 65-20,6.2352032,-75.5831062,16COMUNA 16 BELEN,fuzzy,0.7891,12.8079,0.8596,13.1294,0.2813,5.298,0.7147,15.1724,0.8168,23.0909,0.418,9.1971,0.16,5.9678,0.6889,13.1645
30_3,MEDELLIN,30,3.0,I.E.JUAN MARIA CESPEDES,116,20,43,480,155,232,2133,966,4689,I.E.JUAN MARIA CESPEDES,I.E.JUAN MARIA CESPEDES,CALLE 32B No. 76A - 48,6.235246,-75.5967539,16COMUNA 16 BELEN,exacto,1.7602,28.5714,2.0028,30.5927,0.7032,13.245,1.397,29.6552,0.9969,28.1818,1.2866,28.3079,0.5705,21.2728,1.5696,29.9942
30_4,MEDELLIN,30,4.0,I.E. GUILLERMO VALENCIA,34,17,11,177,41,134,989,722,1744,I.E. GUILLERMO VALENCIA,I.E. GUILLERMO VALENCIA,CALLE 23 No. 78 - 48,6.2268051,-75.5991161,16COMUNA 16 BELEN,exacto,0.5159,8.3744,0.7385,11.2811,0.5977,11.2583,0.3574,7.5862,0.2637,7.4545,0.5965,13.1254,0.4264,15.8996,0.5838,11.1559
30_5,MEDELLIN,30,5.0,UNID.DEPORTIVA ANDRES ESCOBAR,32,25,8,137,32,44,555,369,840,UNID.DEPORTIVA ANDRES ESCOBAR,UNID.DEPORTIVA ANDRES ESCOBAR,CRA 66B No 31A - 15,6.2344447,-75.5886541,16COMUNA 16 BELEN,exacto,0.4856,7.8818,0.5716,8.7317,0.879,16.5563,0.2599,5.5172,0.2058,5.8182,0.3348,7.3656,0.2179,8.126,0.2812,5.3732
30_6,MEDELLIN,30,6.0,LICEO SAN RAFAEL,57,32,15,238,49,96,951,729,1761,LICEO SAN RAFAEL,LICEO SAN RAFAEL,CALLE 30A No. 79 - 13,6.2322711,-75.5994495,16COMUNA 16 BELEN,exacto,0.8649,14.0394,0.9931,15.1689,1.1252,21.1921,0.4873,10.3448,0.3152,8.9091,0.5736,12.6211,0.4305,16.0537,0.5895,11.2646
30_7,MEDELLIN,30,7.0,COLEGIO SAN JUAN BOSCO,10,8,8,53,11,34,358,281,731,COLEGIO SAN JUAN BOSCO,COLEGIO SAN JUAN BOSCO,CLL 28 No 73-01,6.2289758,-75.5939467,16COMUNA 16 BELEN,exacto,0.1517,2.4631,0.2211,3.3779,0.2813,5.298,0.2599,5.5172,0.0707,2.0,0.2159,4.7512,0.1659,6.1881,0.2447,4.676
30_8,MEDELLIN,30,8.0,IE YERMO Y PARRES,10,4,1,0,4,5,141,128,194,IE YERMO Y PARRES,IE YERMO Y PARRES,CALLE 28 No 77 84,6.2295483,-75.5978031,16COMUNA 16 BELEN,exacto,0.1517,2.4631,0.0,0.0,0.1406,2.649,0.0325,0.6897,0.0257,0.7273,0.085,1.8713,0.0756,2.8188,0.0649,1.241
30_9,MEDELLIN,30,9.0,SECCION ESCUELA CARLOS FRANCO,2,1,2,0,2,3,40,46,59,SECCION ESCUELA CARLOS FRANCO,SECCION ESCUELA CARLOS FRANCO,CARRERA 77 No 25 67,6.2269138,-75.5984475,16COMUNA 16 BELEN,exacto,0.0303,0.4926,0.0,0.0,0.0352,0.6623,0.065,1.3793,0.0129,0.3636,0.0241,0.5309,0.0272,1.013,0.0198,0.3774
31_1,MEDELLIN,31,1.0,I.E. OCTAVIO HARRY - JACQUELINE KENNEDY,27,6,12,135,37,84,1023,537,1741,I.E. OCTAVIO HARRY - JACQUELINE KENNEDY,,,6.22226,-75.595919,,,0.4097,6.7332,0.5633,8.7776,0.211,3.6364,0.3899,7.1856,0.238,6.0556,0.617,11.2307,0.3171,10.0468,0.5828,11.1746
31_2,MEDELLIN,31,2.0,I.E.JOSE MARIA BERNAL,60,22,24,197,75,205,1518,847,2595,I.E.JOSE MARIA BERNAL,I.E.JOSE MARIA BERNAL,KR 70A # 13A-19,6.2203041,-75.5934301,16COMUNA 16 BELEN,exacto,0.9105,14.9626,0.822,12.8088,0.7736,13.3333,0.7797,14.3713,0.4824,12.275,0.9156,16.6648,0.5002,15.8466,0.8687,16.656
31_3,MEDELLIN,31,3.0,INSTITUTO SAN CARLOS,126,25,46,589,223,169,1753,679,3648,INSTITUTO SAN CARLOS,INST.SAN CARLOS DE LA SALLE,DIAG. 79 # 15-123,6.2231485,-75.600054,16COMUNA 16 BELEN,manual,1.912,31.4214,2.4576,38.2965,0.879,15.1515,1.4945,27.5449,1.4343,36.4975,1.0574,19.2447,0.401,12.7035,1.2212,23.4146
31_4,MEDELLIN,31,4.0,I.E.ALCALDIA DE MEDELLIN,17,8,14,114,42,76,1209,1010,1887,I.E.ALCALDIA DE MEDELLIN,I.E.ALCALDIA DE MEDELLIN,CL 2B NO 79-80,6.212395,-75.6033683,16COMUNA 16 BELEN,exacto,0.258,4.2394,0.4757,7.4122,0.2813,4.8485,0.4548,8.3832,0.2701,6.874,0.7292,13.2726,0.5964,18.8962,0.6317,12.1117
31_5,MEDELLIN,31,5.0,COLEGIO PADRE MANYANET,74,30,25,317,102,81,1350,575,2212,COLEGIO PADRE MANYANET,COLEGIO PADRE MANYANET,CARRERA 84F No. 8 - 29,6.2196838,-75.6088012,16COMUNA 16 BELEN,exacto,1.1229,18.4539,1.3227,20.6112,1.0549,18.1818,0.8122,14.9701,0.656,16.6939,0.8143,14.8205,0.3396,10.7577,0.7405,14.1977
31_6,MEDELLIN,31,6.0,I.E. CAPILLA DEL ROSARIO,15,12,12,50,19,37,495,408,731,I.E. CAPILLA DEL ROSARIO,I.E.CAMPILLAS DEL ROSARIO,CALLE 6 SUR No. 79 - 195,6.2051797,-75.6021386,16COMUNA 16 BELEN,fuzzy,0.2276,3.7406,0.2086,3.251,0.4219,7.2727,0.3899,7.1856,0.1222,3.1097,0.2986,5.4342,0.2409,7.6333,0.2447,4.6919
31_7,MEDELLIN,31,7.0,IE ANTONIO RICAURTE,21,16,4,33,18,31,503,596,624,IE ANTONIO RICAURTE,IE ANTONIO RICAURTE,CRA 80 No 2-11,6.2111736,-75.6033137,16COMUNA 16 BELEN,exacto,0.3187,5.2369,0.1377,2.1456,0.5626,9.697,0.13,2.3952,0.1158,2.946,0.3034,5.522,0.352,11.1506,0.2089,4.0051
31_8,MEDELLIN,31,8.0,COL LA INMACULADA,61,46,30,103,95,75,1258,693,2142,COL LA INMACULADA,COL LA INMACULADA,CRA 76 No 12-57,6.221235,-75.5983757,16COMUNA 16 BELEN,exacto,0.9256,15.212,0.4298,6.697,1.6174,27.8788,0.9747,17.9641,0.611,15.5483,0.7588,13.8105,0.4092,12.9654,0.717,13.7484
32_1,MEDELLIN,32,1.0,I.E.RAMON GIRALDO CEBALLOS,48,13,24,245,83,108,1349,857,2334,I.E.RAMON GIRALDO CEBALLOS,I.E.RAMON GIRALDO CEBALLOS,CL 21 NO 82A 56,6.2266378,-75.604409,16COMUNA 16 BELEN,exacto,0.7284,20.5128,1.0223,24.6479,0.4571,16.0494,0.7797,22.2222,0.5338,25.6966,0.8137,23.6916,0.5061,21.636,0.7813,25.0027
32_2,MEDELLIN,32,2.0,UNIVERSIDAD DE MEDELLIN,98,31,37,411,99,116,1757,1145,2807,UNIVERSIDAD DE MEDELLIN,UNIVERSIDAD DE MEDELLIN,KR 87 # 30-65,6.230437,-75.6102397,16COMUNA 16 BELEN,exacto,1.4871,41.8803,1.7149,41.3481,1.09,38.2716,1.2021,34.2593,0.6367,30.6502,1.0598,30.857,0.6762,28.9068,0.9396,30.0696
32_3,MEDELLIN,32,3.0,I.E HORACIO MUÑOZ SUESCUN,46,12,23,216,80,80,1028,648,2082,I.E HORACIO MUÃ‘OZ SUESCUN,I.E HORACIO MUÑOZ SUESCUN,CL 32 # 86-35,6.2343401,-75.6093606,16COMUNA 16 BELEN,fuzzy,0.698,19.6581,0.9013,21.7304,0.4219,14.8148,0.7472,21.2963,0.5145,24.7678,0.6201,18.0541,0.3827,16.3595,0.6969,22.3032
32_4,MEDELLIN,32,4.0,I.E.REPUBLICA DE VENEZUELA,9,6,5,52,32,31,775,532,1032,I.E.REPUBLICA DE VENEZUELA,I.E.REPUBLICA DE VENEZUELA,CL 31C # 89C-62,6.2346004,-75.6145772,16COMUNA 16 BELEN,exacto,0.1366,3.8462,0.217,5.2314,0.211,7.4074,0.1624,4.6296,0.2058,9.9071,0.4675,13.6108,0.3142,13.431,0.3455,11.0552
32_5,MEDELLIN,32,5.0,I. E. SAN ROBERTO BELARMINO,21,11,16,54,22,31,483,465,679,I. E. SAN ROBERTO BELARMINO,I. E. SAN ROBERTO BELARMINO,CALLE 32B No. 83 - 39,6.2353674,-75.6067552,16COMUNA 16 BELEN,exacto,0.3187,8.9744,0.2253,5.4326,0.3868,13.5802,0.5198,14.8148,0.1415,6.8111,0.2913,8.4826,0.2746,11.7395,0.2273,7.2737
32_6,MEDELLIN,32,6.0,INST. SALESIANO PEDRO JUSTO BERRIO,11,5,2,16,3,14,198,148,253,INST. SALESIANO PEDRO JUSTO BERRIO,INSTITUTO PEDRO JUSTO BERRIO,CRA 87A No 32A-107,6.2367936,-75.6113159,16COMUNA 16 BELEN,fuzzy,0.1669,4.7009,0.0668,1.6097,0.1758,6.1728,0.065,1.8519,0.0193,0.9288,0.1194,3.4773,0.0874,3.7364,0.0847,2.7102
32_7,MEDELLIN,32,7.0,IE PEDRO OCTAVIO AMADO,1,3,1,0,4,2,104,166,148,IE PEDRO OCTAVIO AMADO,IE PEDRO OCTAVIO AMADO,CR 88A  No 18A - 15,6.2220479,-75.6107039,16COMUNA 16 BELEN,exacto,0.0152,0.4274,0.0,0.0,0.1055,3.7037,0.0325,0.9259,0.0257,1.2384,0.0627,1.8265,0.098,4.1909,0.0495,1.5854
4_1,MEDELLIN,4,1.0,I.E. BARRIO SANTA CRUZ,3,7,10,27,13,38,618,1048,792,I.E. BARRIO SANTA CRUZ,I.E. BARRIO SANTA CRUZ,CL 103 # 43A - 45,6.2921997,-75.5505565,02COMUNA 2 SANTA CRUZ,exacto,0.0455,12.5,0.1127,28.7234,0.2461,35.0,0.3249,55.5556,0.0836,36.1111,0.3728,27.2607,0.6189,33.2276,0.2651,28.863
4_2,MEDELLIN,4,2.0,SEC. ESC. ARZOBISPO GARCIA,6,8,6,30,10,45,952,1035,1039,SEC. ESC. ARZOBISPO GARCIA,SEC. ESC. ARZOBISPO GARCIA,KR 49 # 98-48,6.290176,-75.5560204,02COMUNA 2 SANTA CRUZ,exacto,0.091,25.0,0.1252,31.9149,0.2813,40.0,0.1949,33.3333,0.0643,27.7778,0.5742,41.9938,0.6112,32.8155,0.3478,37.8644
4_3,MEDELLIN,4,3.0,I.E. REPUBLICA DE HONDURAS,15,5,2,37,13,38,697,1071,913,I.E. REPUBLICA DE HONDURAS,I.E. REPUBLICA DE HONDURAS,KR 50B # 97A-30,6.290896,-75.5594336,02COMUNA 2 SANTA CRUZ,exacto,0.2276,62.5,0.1544,39.3617,0.1758,25.0,0.065,11.1111,0.0836,36.1111,0.4204,30.7455,0.6325,33.9569,0.3056,33.2726
5_1,MEDELLIN,5,1.0,I.E. MONTECARLO GUILLERMO GAVIRIA CORREA,12,6,9,50,26,47,934,1699,1511,I.E. MONTECARLO GUILLERMO GAVIRIA CORREA,IE MONTECARLO GUILLERMO GAVIRIA,CARRERA 36 # 85 B 140,6.278153,-75.54657,03COMUNA 3 MANRIQUE,fuzzy,0.1821,20.0,0.2086,23.8095,0.211,12.0,0.2924,19.1489,0.1672,19.2593,0.5634,20.9511,1.0033,23.4571,0.5058,25.0041
5_2,MEDELLIN,5,2.0,IE LAS NIEVES,14,10,7,38,19,66,789,1243,999,IE LAS NIEVES,IE LAS NIEVES,CLL 82 No 39 - 69,6.2736359,-75.5490417,03COMUNA 3 MANRIQUE,exacto,0.2124,23.3333,0.1586,18.0952,0.3516,20.0,0.2274,14.8936,0.1222,14.0741,0.4759,17.6985,0.734,17.1614,0.3344,16.5315
5_3,MEDELLIN,5,3.0,I.E. MANUELA BELTRAN,7,8,16,50,38,37,804,593,1068,I.E. MANUELA BELTRAN,I.E. MANUELA BELTRAN,KR 37 # 71-47,6.2661811,-75.5485417,03COMUNA 3 MANRIQUE,exacto,0.1062,11.6667,0.2086,23.8095,0.2813,16.0,0.5198,34.0426,0.2444,28.1481,0.4849,18.035,0.3502,8.1872,0.3575,17.6733
5_4,MEDELLIN,5,4.0,SEC ESC SAN JOSE (IE MANUELA BELTRAN),17,10,6,62,34,59,1141,1624,1357,SEC ESC SAN JOSE (IE MANUELA BELTRAN),SEC ESC SAN JOSE (IE MANUELA BELTRAN),CL 71 No 33-18,6.2655756,-75.5459176,03COMUNA 3 MANRIQUE,exacto,0.258,28.3333,0.2587,29.5238,0.3516,20.0,0.1949,12.766,0.2187,25.1852,0.6882,25.5944,0.959,22.4216,0.4543,22.4557
5_5,MEDELLIN,5,5.0,I.E.RAMON MUNERA LOPERA,4,3,2,7,9,11,203,729,304,I.E.RAMON MUNERA LOPERA,I.E.RAMON MUNERA LOPERA,Cra 30A  # 77 - 04,6.2693528,-75.5436412,03COMUNA 3 MANRIQUE,exacto,0.0607,6.6667,0.0292,3.3333,0.1055,6.0,0.065,4.2553,0.0579,6.6667,0.1224,4.5536,0.4305,10.0649,0.1018,5.0306
5_6,MEDELLIN,5,6.0,IE BELLO ORIENTE,1,1,1,0,2,3,51,189,113,IE BELLO ORIENTE,IE BELLO ORIENTE,CRA 23B No 84B-27,6.2768963,-75.5382173,03COMUNA 3 MANRIQUE,exacto,0.0152,1.6667,0.0,0.0,0.0352,2.0,0.0325,2.1277,0.0129,1.4815,0.0308,1.144,0.1116,2.6094,0.0378,1.8699
5_7,MEDELLIN,5,7.0,IE JOSE ROBERTO VASQUEZ,3,5,1,3,1,11,168,405,198,IE JOSE ROBERTO VASQUEZ,IE JOSE ROBERTO VASQUEZ,CLL 76 No 39-160,6.2686053,-75.5501702,03COMUNA 3 MANRIQUE,exacto,0.0455,5.0,0.0125,1.4286,0.1758,10.0,0.0325,2.1277,0.0064,0.7407,0.1013,3.7685,0.2392,5.5916,0.0663,3.2765
5_8,MEDELLIN,5,8.0,SEC. ESC. BALDOMERO SANIN CANO,2,7,5,0,6,30,368,761,493,SEC. ESC. BALDOMERO SANIN CANO,,,6.26903,-75.54831,,,0.0303,3.3333,0.0,0.0,0.2461,14.0,0.1624,10.6383,0.0386,4.4444,0.222,8.2548,0.4494,10.5067,0.165,8.1582
6_1,MEDELLIN,6,1.0,I.E. JOSE ANTONIO GALAN,9,12,13,49,23,46,889,1098,1190,I.E. JOSE ANTONIO GALAN,I.E. JOSE ANTONIO GALAN,KR 44A NO 93-87,6.28494,-75.5521444,03COMUNA 3 MANRIQUE,exacto,0.1366,15.2542,0.2045,27.6836,0.4219,30.0,0.4224,43.3333,0.1479,30.6667,0.5362,30.105,0.6484,27.3952,0.3984,27.9934
6_2,MEDELLIN,6,2.0,I.E. HERNAN TORO AGUDELO,25,19,11,72,26,63,1277,1552,1923,I.E. HERNAN TORO AGUDELO,I.E. HERNAN TORO AGUDELO,Cra 45 # 72-80,6.2682192,-75.5548092,03COMUNA 3 MANRIQUE,exacto,0.3794,42.3729,0.3004,40.678,0.6681,47.5,0.3574,36.6667,0.1672,34.6667,0.7702,43.2442,0.9165,38.7226,0.6437,45.2364
6_3,MEDELLIN,6,3.0,IE RODRIGO LARA BONILLA - SEDE LA SUSANA,19,4,6,44,21,21,540,802,804,IE RODRIGO LARA BONILLA - SEDE LA SUSANA,SEC ESC SUSANA D. (IE RODRIGO LARA BONI),KR 41B # 66E-50,6.2624287,-75.5532465,03COMUNA 3 MANRIQUE,manual,0.2883,32.2034,0.1836,24.8588,0.1406,10.0,0.1949,20.0,0.1351,28.0,0.3257,18.2865,0.4736,20.01,0.2691,18.9132
6_4,MEDELLIN,6,4.0,IE SAN JUAN BAUTISTA DE LA SALLE,6,5,0,12,5,19,247,556,334,IE SAN JUAN BAUTISTA DE LA SALLE,IE SAN JUAN BAUTISTA DE LA SALLE,CLL 93 No 40-42,6.284409,-75.5493091,03COMUNA 3 MANRIQUE,exacto,0.091,10.1695,0.0501,6.7797,0.1758,12.5,0.0,0.0,0.0322,6.6667,0.149,8.3644,0.3283,13.8723,0.1118,7.857
7_1,MEDELLIN,7,1.0,COL AGUSTINIANO DE SAN NICOLAS,27,6,10,85,34,184,1281,1325,2131,COL AGUSTINIANO DE SAN NICOLAS,COL AGUSTINIANO DE SAN NICOLAS,KR 48 # 93-13,6.284794,-75.5555856,04COMUNA 4 ARANJUEZ,exacto,0.4097,24.5455,0.3547,24.3553,0.211,11.1111,0.3249,17.2414,0.2187,26.5625,0.7727,24.4,0.7825,20.0121,0.7133,27.6538
7_2,MEDELLIN,7,2.0,I.E. MONSEÑOR FRANCISCO CRISTOBAL TORO,30,13,10,101,25,94,1039,1101,1627,I.E. MONSEÃ‘OR FRANCISCO CRISTOBAL TORO,I.E. MONSEÑOR FCO. CRISTOBAL T,Cra 50D # 90-49,6.2825483,-75.5604068,04COMUNA 4 ARANJUEZ,fuzzy,0.4552,27.2727,0.4214,28.9398,0.4571,24.0741,0.3249,17.2414,0.1608,19.5312,0.6267,19.7905,0.6502,16.6289,0.5446,21.1134
7_3,MEDELLIN,7,3.0,I.E. GILBERTO ALZATE AVENDAÑO,11,7,16,82,19,77,1023,1267,1348,I.E. GILBERTO ALZATE AVENDAÃ‘O,I.E. GILBERTO ALZATE AVENDAÑO,CL 92 # 51A-100,6.2836258,-75.5626718,04COMUNA 4 ARANJUEZ,fuzzy,0.1669,10.0,0.3422,23.4957,0.2461,12.963,0.5198,27.5862,0.1222,14.8438,0.617,19.4857,0.7482,19.1361,0.4512,17.4929
7_4,MEDELLIN,7,4.0,I.E. CAMPO VALDES,22,14,12,55,30,52,1010,1365,1314,I.E. CAMPO VALDES,I.E. CAMPO VALDES,CL 83 # 47-33,6.2752956,-75.5556649,04COMUNA 4 ARANJUEZ,exacto,0.3338,20.0,0.2295,15.7593,0.4923,25.9259,0.3899,20.6897,0.193,23.4375,0.6092,19.2381,0.8061,20.6162,0.4399,17.0516
7_5,MEDELLIN,7,5.0,I.E.SAN JUAN BOSCO,8,3,3,12,8,17,277,408,400,I.E.SAN JUAN BOSCO,I.E.SAN JUAN BOSCO,CALLE 82 # 50C-10,6.2758977,-75.5610219,04COMUNA 4 ARANJUEZ,exacto,0.1214,7.2727,0.0501,3.4384,0.1055,5.5556,0.0975,5.1724,0.0515,6.25,0.1671,5.2762,0.2409,6.1622,0.1339,5.1908
7_6,MEDELLIN,7,6.0,I.E. JOSE EUSEBIO CARO,7,4,5,6,6,18,277,449,370,I.E. JOSE EUSEBIO CARO,IE JOSE EUSEVIO CARO,CRA 50B No 93 - 106,6.2855519,-75.5587869,04COMUNA 4 ARANJUEZ,fuzzy,0.1062,6.3636,0.025,1.7192,0.1406,7.4074,0.1624,8.6207,0.0386,4.6875,0.1671,5.2762,0.2651,6.7815,0.1239,4.8015
7_7,MEDELLIN,7,7.0,IE LORENZA VILLEGAS DE SANTOS,5,4,1,5,3,19,231,470,372,IE LORENZA VILLEGAS DE SANTOS,IE LORENZA VILLEGAS DE SANTOS,CRA 51 No 87 - 40,6.2802524,-75.5607509,04COMUNA 4 ARANJUEZ,exacto,0.0759,4.5455,0.0209,1.4327,0.1406,7.4074,0.0325,1.7241,0.0193,2.3438,0.1393,4.4,0.2775,7.0986,0.1245,4.8274
7_8,MEDELLIN,7,8.0,SEC ESC TOMAS CARRASQUILLA No 1,0,3,1,3,3,7,112,236,144,SEC ESC TOMAS CARRASQUILLA NO 1,SEC ESC TOMAS CARRASQUILLA No 1,CRA 52 No 92 - 05,6.2838164,-75.563192,04COMUNA 4 ARANJUEZ,exacto,0.0,0.0,0.0125,0.8596,0.1055,5.5556,0.0325,1.7241,0.0193,2.3438,0.0676,2.1333,0.1394,3.5644,0.0482,1.8687
8_1,MEDELLIN,8,1.0,I.E. ALFONSO MORA NARANJO,14,15,14,87,14,81,1000,1003,1523,I.E. ALFONSO MORA NARANJO,I.E. ALFONSO MORA NARANJO,KR 48A # 77-68,6.271335,-75.5572578,04COMUNA 4 ARANJUEZ,exacto,0.2124,13.7255,0.363,26.3636,0.5274,19.7368,0.4548,22.5806,0.09,11.8644,0.6032,27.2257,0.5923,16.0045,0.5098,24.5289
8_2,MEDELLIN,8,2.0,I.E. JOSE MARIA BRAVO MARQUEZ,18,10,9,54,22,43,577,863,1035,I.E. JOSE MARIA BRAVO MARQUEZ,I.E. JOSE MARIA BRAVO MARQUEZ,CL 70 # 47A-04,6.2656458,-75.557353,04COMUNA 4 ARANJUEZ,exacto,0.2731,17.6471,0.2253,16.3636,0.3516,13.1579,0.2924,14.5161,0.1415,18.6441,0.348,15.7092,0.5096,13.7705,0.3465,16.6694
8_3,MEDELLIN,8,3.0,I.E. FRANCISCO MIRANDA,31,9,12,65,38,58,934,1373,1637,I.E. FRANCISCO MIRANDA,I.E. FRANCISCO MIRANDA,KR 51C # 79-56,6.2741152,-75.5635754,04COMUNA 4 ARANJUEZ,exacto,0.4704,30.3922,0.2712,19.697,0.3165,11.8421,0.3899,19.3548,0.2444,32.2034,0.5634,25.4288,0.8108,21.9084,0.548,26.365
8_4,MEDELLIN,8,4.0,I.E. JAVIERA LONDOÑO SEVILLA,28,31,16,100,33,32,683,1785,1262,I.E. JAVIERA LONDOÃ‘O SEVILLA,,,6.267915,-75.564933,,,0.4249,27.451,0.4173,30.303,1.09,40.7895,0.5198,25.8065,0.2122,27.9661,0.412,18.5952,1.0541,28.4825,0.4225,20.3253
8_5,MEDELLIN,8,5.0,I.E. EL BOSQUE,5,1,5,22,9,9,214,660,368,I.E. EL BOSQUE,I.E. EL BOSQUE,Cra 58 # 85B 81,6.2798373,-75.5672473,04COMUNA 4 ARANJUEZ,exacto,0.0759,4.902,0.0918,6.6667,0.0352,1.3158,0.1624,8.0645,0.0579,7.6271,0.1291,5.8263,0.3898,10.5314,0.1232,5.9269
8_6,MEDELLIN,8,6.0,SEC ESC JULIO ARBOLEDA,2,1,2,2,1,6,145,266,193,SEC ESC JULIO ARBOLEDA,SEC ESC JULIO ARBOLEDA,CRA 51 No 78-15,6.2726019,-75.5624789,04COMUNA 4 ARANJUEZ,exacto,0.0303,1.9608,0.0083,0.6061,0.0352,1.3158,0.065,3.2258,0.0064,0.8475,0.0875,3.9477,0.1571,4.2445,0.0646,3.1084
8_7,MEDELLIN,8,7.0,SEC. ESC. PORFIRIO BARBA JACOB,2,7,0,0,0,1,48,92,73,SEC. ESC. PORFIRIO BARBA JACOB,ESCUELA SECCION PORFIRIO BARBA JACOB,CARRERA 47 No 74 20,6.2689592,-75.5564298,04COMUNA 4 ARANJUEZ,fuzzy,0.0303,1.9608,0.0,0.0,0.2461,9.2105,0.0,0.0,0.0,0.0,0.029,1.3068,0.0543,1.468,0.0244,1.1757
8_8,MEDELLIN,8,8.0,IE FE Y ALEGRIA LUIS AMIGO MORAVIA,2,2,4,0,1,3,72,225,118,IE FE Y ALEGRIA LUIS AMIGO MORAVIA,IE FE Y ALEGRIA LUIS AMIGO MORAVIA,CARRERA 58 No 84 40,6.279136,-75.5664082,04COMUNA 4 ARANJUEZ,exacto,0.0303,1.9608,0.0,0.0,0.0703,2.6316,0.13,6.4516,0.0064,0.8475,0.0434,1.9603,0.1329,3.5902,0.0395,1.9005
9_1,MEDELLIN,9,1.0,I.E. JULIO CESAR GARCIA,32,6,15,113,37,66,1089,937,1869,I.E. JULIO CESAR GARCIA,I.E. JULIO CESAR GARCIA,CL 111A # 65-26,6.3064327,-75.5641527,05COMUNA 5 CASTILLA,exacto,0.4856,26.8908,0.4715,24.197,0.211,15.7895,0.4873,34.8837,0.238,24.8322,0.6569,25.824,0.5533,18.1203,0.6256,26.4394
9_2,MEDELLIN,9,2.0,IE DIEGO ECHAVARRIA MISAS,30,7,9,83,41,83,1199,1107,1974,IE DIEGO ECHAVARRIA MISAS,IE DIEGO ECHAVARRIA MISAS,CALLE 111 No 70 68,6.3085715,-75.5691596,05COMUNA 5 CASTILLA,exacto,0.4552,25.2101,0.3463,17.773,0.2461,18.4211,0.2924,20.9302,0.2637,27.5168,0.7232,28.4325,0.6537,21.4079,0.6608,27.9247
9_3,MEDELLIN,9,3.0,I.E. PBRO ANTONIO JOSE BERNAL LONDOÑO SJ,29,7,11,130,41,59,712,1175,1415,I.E. PBRO ANTONIO JOSE BERNAL LONDOÃ‘O SJ,IE PRESBITERO ANTONIO JOSE BERNAL LONDOÑ,CL 105A # 63A-200,6.301311,-75.559322,05COMUNA 5 CASTILLA,fuzzy,0.4401,24.3697,0.5424,27.8373,0.2461,18.4211,0.3574,25.5814,0.2637,27.5168,0.4295,16.884,0.6939,22.7229,0.4737,20.017
9_4,MEDELLIN,9,4.0,I.E.SEBASTIAN DE BELALCAZAR,5,2,0,15,2,19,255,395,369,I.E.SEBASTIAN DE BELALCAZAR,I.E.SEBASTIAN DE BELALCAZAR,CALLE 103EE  # 63D-185,6.297786,-75.564457,05COMUNA 5 CASTILLA,exacto,0.0759,4.2017,0.0626,3.212,0.0703,5.2632,0.0,0.0,0.0129,1.3423,0.1538,6.047,0.2333,7.6388,0.1235,5.22
9_5,MEDELLIN,9,5.0,SEC ESC TRICENTENARIO,18,14,5,109,24,47,749,1169,1116,SEC ESC TRICENTENARIO,SEC ESC TRICENTENARIO,CRA 63A No 94A-23,6.289385,-75.5662072,05COMUNA 5 CASTILLA,exacto,0.2731,15.1261,0.4548,23.3405,0.4923,36.8421,0.1624,11.6279,0.1544,16.1074,0.4518,17.7614,0.6903,22.6068,0.3736,15.7872
9_6,MEDELLIN,9,6.0,SEC ESC TOSCANA,5,2,3,17,4,14,213,388,326,SEC ESC TOSCANA,SEC ESC TOSCANA,CLL 111G No 64A-16,6.3062684,-75.5593297,05COMUNA 5 CASTILLA,exacto,0.0759,4.2017,0.0709,3.6403,0.0703,5.2632,0.0975,6.9767,0.0257,2.6846,0.1285,5.051,0.2291,7.5034,0.1091,4.6117
90_1,MEDELLIN,90,1.0,ESTADIO ATANASIO GIRARDOT,88,10,45,369,195,161,2140,1894,4498,ESTADIO ATANASIO GIRARDOT,ESTADIO ATANASIO GIRARDOT,CL 48 # 73 - 10,6.2566311,-75.5900927,,exacto,1.3354,51.1628,1.5397,55.2395,0.3516,38.4615,1.462,56.25,1.2542,50.1285,1.2908,54.3423,1.1185,61.9562,1.5057,54.8938
90_2,MEDELLIN,90,2.0,PLAZA MAYOR CTRO EXPOS. CONVEN,84,16,35,299,194,143,1798,1163,3696,PLAZA MAYOR CTRO EXPOS. CONVEN,PLAZA MAYOR CTRO EXPOS. CONVEN,CL 41 # 55 - 35,6.2417615,-75.5768265,,exacto,1.2747,48.8372,1.2476,44.7605,0.5626,61.5385,1.1371,43.75,1.2477,49.8715,1.0845,45.6577,0.6868,38.0438,1.2372,45.1062
98_1,MEDELLIN,98,1.0,RECLUSION DE MUJERES PEDREGAL MEDELLIN,0,0,0,0,0,1,4,9,9,RECLUSION DE MUJERES PEDREGAL MEDELLIN,RECLUSION DE MUJERES PEDREGAL MEDELLIN,KM 6 VIA AL MAR FINCA LA TERES,6.2835613,-75.6280858,,exacto,0.0,0.0,0.0,0.0,0.0,0.0,0.0,0.0,0.0,0.0,0.0024,20.0,0.0053,20.4545,0.003,20.4545
98_2,MEDELLIN,98,2.0,ESTABLECIMIENTO CARCELARIO PEDREGAL MEDE,0,0,0,0,0,0,0,15,7,ESTABLECIMIENTO CARCELARIO PEDREGAL MEDE,ESTABLECIMIENTO CARCELARIO PEDREGAL MEDE,KM 6 VIA AL MAR FINCA LA TERES,6.28354,-75.6281234,,exacto,0.0,0.0,0.0,0.0,0.0,0.0,0.0,0.0,0.0,0.0,0.0,0.0,0.0089,34.0909,0.0023,15.9091
98_3,MEDELLIN,98,3.0,CENTRO CARLOS LLERAS RESTREPO,1,0,1,0,0,0,16,20,28,CENTRO CARLOS LLERAS RESTREPO,CENTRO CARLOS LLERAS RESTREPO,CALLE 65C No. 94C-80,6.2852513,-75.6025792,,exacto,0.0152,100.0,0.0,0.0,0.0,0.0,0.0325,100.0,0.0,0.0,0.0097,80.0,0.0118,45.4545,0.0094,63.6364
99_1,MEDELLIN,99,1.0,CENTRO EDUCATIVO EL MANZANILLO,3,2,0,0,5,5,147,71,213,CENTRO EDUCATIVO EL MANZANILLO,CENTRO EDUCATIVO EL MANZANILLO,CLL 5A SUR No 89A - 11 VEREDA MANZANILLO,6.2068986,-75.6140905,17CORREGIMIENTO ALTAVISTA,exacto,0.0455,1.4085,0.0,0.0,0.0703,1.8692,0.0,0.0,0.0322,1.4535,0.0887,1.5715,0.0419,0.5395,0.0713,1.4838
99_10,MEDELLIN,99,10.0,IE FE Y ALEGRIA EL LIMONAR,10,7,3,33,18,42,483,1229,810,IE FE Y ALEGRIA EL LIMONAR,IE FE Y ALEGRIA EL LIMONAR,CL 55 SUR No 60 A-13 SAN ANTONIO DE PRADO,6.174708,-75.6421088,18CORR.  SAN ANTONIO DE PRADO,exacto,0.1517,4.6948,0.1377,17.6471,0.2461,6.5421,0.0975,2.4793,0.1158,5.2326,0.2913,5.1636,0.7258,9.3382,0.2711,5.6426
99_17,MEDELLIN,99,17.0,IE HECTOR ROGELIO MONTOYA,2,2,1,2,7,9,183,168,247,IE HECTOR ROGELIO MONTOYA,IE HECTOR ROGELIO MONTOYA,CLL 20 No 32-60,6.3435988,-75.6887088,19CORREGIMIENTO PALMITAS,exacto,0.0303,0.939,0.0083,1.0695,0.0703,1.8692,0.0325,0.8264,0.045,2.0349,0.1104,1.9564,0.0992,1.2765,0.0827,1.7207
99_2,MEDELLIN,99,2.0,C.E. MARIA PAULINA TABORDA,1,0,0,0,0,0,24,36,32,C.E. MARIA PAULINA TABORDA,,,6.247855,-75.636229,,,0.0152,0.4695,0.0,0.0,0.0,0.0,0.0,0.0,0.0,0.0,0.0145,0.2566,0.0213,0.2735,0.0107,0.2229
99_3,MEDELLIN,99,3.0,I.E. DEBORA ARANGO PEREZ,7,3,5,32,15,81,571,844,754,I.E. DEBORA ARANGO PEREZ,I.E. DEBORA ARANGO PEREZ,CL 18 No 103-60 ALTAVISTA,6.2209074,-75.6137259,17CORREGIMIENTO ALTAVISTA,exacto,0.1062,3.2864,0.1335,17.1123,0.1055,2.8037,0.1624,4.1322,0.0965,4.3605,0.3444,6.1043,0.4984,6.4129,0.2524,5.2525
99_33,MEDELLIN,99,33.0,CASA DE GOBIERNO SANTA ELENA,17,2,6,120,18,32,315,330,615,CASA DE GOBIERNO SANTA ELENA,CASA DE GOBIERNO SANTA ELENA,SANTA ELENA,6.209568,-75.4976222,21CORREGIMIENTO SANTA ELENA,exacto,0.258,7.9812,0.5007,64.1711,0.0703,1.8692,0.1949,4.9587,0.1158,5.2326,0.19,3.3675,0.1949,2.5074,0.2059,4.2842
99_34,MEDELLIN,99,34.0,COLISEO SANTA ELENA,34,9,7,0,26,14,415,542,526,COLISEO SANTA ELENA,COLISEO SANTA ELENA,CORREGIMIENTO SANTA ELENA,6.2107841,-75.4971002,21CORREGIMIENTO SANTA ELENA,exacto,0.5159,15.9624,0.0,0.0,0.3165,8.4112,0.2274,5.7851,0.1672,7.5581,0.2503,4.4366,0.3201,4.1182,0.1761,3.6642
99_35,MEDELLIN,99,35.0,C.E. JUAN ANDRES PATIÑO,0,1,0,0,0,0,22,37,32,C.E. JUAN ANDRES PATIÃ‘O,,,6.23194,-75.48003,,,0.0,0.0,0.0,0.0,0.0352,0.9346,0.0,0.0,0.0,0.0,0.0133,0.2352,0.0218,0.2811,0.0107,0.2229
99_36,MEDELLIN,99,36.0,C.E. MEDIA LUNA,0,0,0,0,0,1,25,20,27,C.E. MEDIA LUNA,,,6.238507,-75.517772,,,0.0,0.0,0.0,0.0,0.0,0.0,0.0,0.0,0.0,0.0,0.0151,0.2673,0.0118,0.152,0.009,0.1881
99_4,MEDELLIN,99,4.0,PARROQ SAN JOSEMARIA ESCRIVA DE BALAGUER,2,0,0,0,2,1,33,37,83,PARROQ SAN JOSEMARIA ESCRIVA DE BALAGUER,,,6.23413,-75.626564,,,0.0303,0.939,0.0,0.0,0.0,0.0,0.0,0.0,0.0129,0.5814,0.0199,0.3528,0.0218,0.2811,0.0278,0.5782
99_CENTRO DE DESARROLLO SOCIAL (CDS),MEDELLIN,99,,CENTRO DE DESARROLLO SOCIAL (CDS),5,7,7,0,12,26,415,699,647,CENTRO DE DESARROLLO SOCIAL (CDS),CENTRO DE DESARROLLO SOCIAL (CDS),CRA 79 No 40 SUR - 40,6.1854238,-75.6559188,18CORR.  SAN ANTONIO DE PRADO,exacto,0.0759,2.3474,0.0,0.0,0.2461,6.5421,0.2274,5.7851,0.0772,3.4884,0.2503,4.4366,0.4128,5.3111,0.2166,4.5071
99_I.E. MANUEL J. BETANCUR,MEDELLIN,99,,I.E. MANUEL J. BETANCUR,30,11,14,0,42,63,1114,1628,1495,I.E. MANUEL J. BETANCUR,I.E.MANUEL DE J.BETANCUR,CRA 81 No 43 SUR - 38,6.1836668,-75.6574952,18CORR.  SAN ANTONIO DE PRADO,fuzzy,0.4552,14.0845,0.0,0.0,0.3868,10.2804,0.4548,11.5702,0.2701,12.2093,0.6719,11.9093,0.9614,12.3699,0.5004,10.4145
99_I.E. PRESBITERO JUAN J. ESCOBAR,MEDELLIN,99,,I.E. PRESBITERO JUAN J. ESCOBAR,9,6,4,0,13,53,321,561,516,I.E. PRESBITERO JUAN J. ESCOBAR,I.E. PRESBITERO JUAN J. ESCOBAR,CLL 62 No 128-120,6.2783126,-75.6346333,20CORREGIMIENTO SAN CRISTOBAL,exacto,0.1366,4.2254,0.0,0.0,0.211,5.6075,0.13,3.3058,0.0836,3.7791,0.1936,3.4317,0.3313,4.2626,0.1727,3.5946
99_IE ALFONSO UPEGUI OROZCO,MEDELLIN,99,,IE ALFONSO UPEGUI OROZCO,2,2,8,0,15,21,320,343,447,IE ALFONSO UPEGUI OROZCO,IE ALFONSO UPEGUI OROZCO,CALLE 64B No 117 177,6.2878863,-75.6098148,20CORREGIMIENTO SAN CRISTOBAL,exacto,0.0303,0.939,0.0,0.0,0.0703,1.8692,0.2599,6.6116,0.0965,4.3605,0.193,3.421,0.2026,2.6062,0.1496,3.1139
99_IE ANGELA RESTREPO MORENO,MEDELLIN,99,,IE ANGELA RESTREPO MORENO,3,1,2,0,14,3,141,304,245,IE ANGELA RESTREPO MORENO,IE ANGELA RESTREPO MORENO,CARRERA 55 No 48C SUR 90,6.177514,-75.6373913,18CORR.  SAN ANTONIO DE PRADO,exacto,0.0455,1.4085,0.0,0.0,0.0352,0.9346,0.065,1.6529,0.09,4.0698,0.085,1.5074,0.1795,2.3099,0.082,1.7067
99_IE LOMA HERMOSA,MEDELLIN,99,,IE LOMA HERMOSA,0,1,3,0,11,25,233,351,280,IE LOMA HERMOSA,IE LOMA HERMOSA,CRA 123B No 53B-05,6.2704707,-75.6295618,20CORREGIMIENTO SAN CRISTOBAL,exacto,0.0,0.0,0.0,0.0,0.0352,0.9346,0.0975,2.4793,0.0707,3.1977,0.1405,2.4909,0.2073,2.667,0.0937,1.9505
99_IE LUSITANIA,MEDELLIN,99,,IE LUSITANIA,7,11,10,0,16,39,563,1211,938,IE LUSITANIA,IE LUSITANIA,CRA 109A No 63B-320,6.2791544,-75.6181553,20CORREGIMIENTO SAN CRISTOBAL,exacto,0.1062,3.2864,0.0,0.0,0.3868,10.2804,0.3249,8.2645,0.1029,4.6512,0.3396,6.0188,0.7151,9.2014,0.314,6.5343
99_IE MONSEÑOR VICTOR WIEDEMANN,MEDELLIN,99,,IE MONSEÑOR VICTOR WIEDEMANN,12,7,3,0,9,22,475,749,664,IE MONSEÃ‘OR VICTOR WIEDEMANN,IE MONSEÑOR VICTOR WIEDEMANN,DIAG 60E No. 41A SUR - 30,6.1840473,-75.6423211,18CORR.  SAN ANTONIO DE PRADO,fuzzy,0.1821,5.6338,0.0,0.0,0.2461,6.5421,0.0975,2.4793,0.0579,2.6163,0.2865,5.078,0.4423,5.6911,0.2223,4.6256
99_IE SAN ANTONIO DE PRADO,MEDELLIN,99,,IE SAN ANTONIO DE PRADO,23,11,21,0,52,70,1427,1363,2112,IE SAN ANTONIO DE PRADO,IE SAN ANTONIO DE PRADO,CRA 79 No. 42 SUR - 39,6.1842588,-75.656197,18CORR.  SAN ANTONIO DE PRADO,exacto,0.349,10.7981,0.0,0.0,0.3868,10.2804,0.6823,17.3554,0.3344,15.1163,0.8607,15.2555,0.8049,10.3564,0.707,14.7126
99_IE SAN CRISTOBAL,MEDELLIN,99,,IE SAN CRISTOBAL,22,4,9,0,25,238,865,869,1660,IE SAN CRISTOBAL,IE SAN CRISTOBAL,CRA 131 No 65-7,6.2806924,-75.6365856,20CORREGIMIENTO SAN CRISTOBAL,exacto,0.3338,10.3286,0.0,0.0,0.1406,3.7383,0.2924,7.438,0.1608,7.2674,0.5217,9.2474,0.5132,6.6028,0.5557,11.5639
99_PAR. BIBLIOTECA JOSE HORACIO BETANCUR,MEDELLIN,99,,PAR. BIBLIOTECA JOSE HORACIO BETANCUR,2,10,7,0,9,19,259,446,356,PAR. BIBLIOTECA JOSE HORACIO BETANCUR,P BIBL JOSE HORACIO BETANCUR,CLL 50 E SUR 75 A - 94,6.1773092,-75.6544411,18CORR.  SAN ANTONIO DE PRADO,fuzzy,0.0303,0.939,0.0,0.0,0.3516,9.3458,0.2274,5.7851,0.0579,2.6163,0.1562,2.7689,0.2634,3.3888,0.1192,2.48
99_PARQUE BIBLIOTECA FERNANDO BOTERO,MEDELLIN,99,,PARQUE BIBLIOTECA FERNANDO BOTERO,18,6,10,0,31,147,851,1064,1401,PARQUE BIBLIOTECA FERNANDO BOTERO,PARQUE BIBLIOTECA FERNANDO BOTERO,CRA 131 No 62-15,6.2778592,-75.6367918,20CORREGIMIENTO SAN CRISTOBAL,exacto,0.2731,8.4507,0.0,0.0,0.211,5.6075,0.3249,8.2645,0.1994,9.0116,0.5133,9.0977,0.6283,8.0845,0.469,9.7597
99_SEC ESC JUAN NEPOMUCENO MORALES,MEDELLIN,99,,SEC ESC JUAN NEPOMUCENO MORALES,4,4,1,0,4,37,152,259,255,SEC ESC JUAN NEPOMUCENO MORALES,SEC ESC JUAN NEPOMUCENO MORALES,CALLE 62 No 127 6,6.2792238,-75.6320439,20CORREGIMIENTO SAN CRISTOBAL,exacto,0.0607,1.8779,0.0,0.0,0.1406,3.7383,0.0325,0.8264,0.0257,1.1628,0.0917,1.625,0.1529,1.9679,0.0854,1.7764
