id_puesto,municipio,zona,num_puesto,nombre_puesto,tiene_codigo,zona_sur,votos_quintero,votos_sanchez,votos_nanclares,votos_carvalho_2022,votos_hoyos,votos_zuluaga,votos_creemos,votos_pacto,votos_cd,nombre_norm,PUESTO,DIRECCIÓN,lat,lon,COMUNA,tipo_match
1_1,MEDELLIN,1,1.0,SEC. ESC. LA ESPERANZA No 2,True,False,4,6,3,23,24,39,210,816,382,SEC. ESC. LA ESPERANZA NO 2,SEC. ESC. LA ESPERANZA No 2,KR 29 # 102 - 20,6.29116,-75.541166,01COMUNA 1 POPULAR,exacto
1_2,MEDELLIN,1,2.0,INST.EDUC. LA CANDELARIA,True,False,7,14,12,18,17,31,410,1150,586,INST.EDUC. LA CANDELARIA,INST.EDUC. LA CANDELARIA,CL 106 # 32-100,6.2935183,-75.5424117,01COMUNA 1 POPULAR,exacto
1_3,MEDELLIN,1,3.0,IE MARIA DE LOS ANGELES CANO MARQUEZ,True,False,3,5,2,12,6,20,340,904,365,IE MARIA DE LOS ANGELES CANO MARQUEZ,IE MARIA DE LOS ANGELES CANO MARQUEZ,CRA 36B No 102C -54,6.2923713,-75.5448303,01COMUNA 1 POPULAR,exacto
1_4,MEDELLIN,1,4.0,SEC. ESC. MEDELLIN,True,False,2,8,9,26,7,51,454,739,483,SEC. ESC. MEDELLIN,SEC. ESC. MEDELLIN,CL 96 # 36-45,6.2867589,-75.5465494,01COMUNA 1 POPULAR,exacto
1_5,MEDELLIN,1,5.0,I.E.FE Y ALEGRIA GRANIZAL,True,False,1,0,2,2,2,8,155,498,124,I.E.FE Y ALEGRIA GRANIZAL,I.E.FE Y ALEGRIA GRANIZAL,Cra 39A N° 104-23,6.292777,-75.5477324,01COMUNA 1 POPULAR,exacto
1_6,MEDELLIN,1,6.0,IE LA AVANZADA,True,False,1,1,0,1,0,18,34,173,68,IE LA AVANZADA,IE LA AVANZADA,CRA 27 No 106BB-65,6.2943218,-75.5390466,01COMUNA 1 POPULAR,exacto
1_7,MEDELLIN,1,7.0,SEC. ESC. CARPINELO AMAPOLITA,True,False,0,0,0,0,1,7,48,247,64,SEC. ESC. CARPINELO AMAPOLITA,SEC. ESC. CARPINELO AMAPOLITA,CALLE 97 # 23-12,6.2869144,-75.5384628,01COMUNA 1 POPULAR,exacto
1_8,MEDELLIN,1,8.0,IE ANTONIO DERKA,True,False,2,2,4,3,6,19,99,689,167,IE ANTONIO DERKA,IE ANTONIO DERKA,CRA 28 No 107-425,6.2968626,-75.5387284,01COMUNA 1 POPULAR,exacto
1_9,MEDELLIN,1,9.0,SEC. ESC. NUEVO HORIZONTE 2,True,False,1,2,6,0,3,18,213,655,198,SEC. ESC. NUEVO HORIZONTE 2,,,6.29729,-75.54678,,
10_1,MEDELLIN,10,1.0,I.E. MARIA MONTESSORI,True,False,25,12,9,82,34,120,1031,1517,1295,I.E. MARIA MONTESSORI,I.E. MARIA MONTESSORI,KR 69A # 92C-87,6.2867714,-75.5750512,05COMUNA 5 CASTILLA,exacto
10_2,MEDELLIN,10,2.0,ITM CASTILLA,True,False,34,22,12,120,39,81,1072,1926,1339,ITM CASTILLA,ITM CASTILLA,CR 65 No 98 A - 75,6.2938559,-75.5691395,05COMUNA 5 CASTILLA,exacto
10_3,MEDELLIN,10,3.0,I.E. DINAMARCA,True,False,18,10,4,41,17,38,376,820,486,I.E. DINAMARCA,I.E. DINAMARCA,Calle 91 No 65-119,6.2825209,-75.5727759,05COMUNA 5 CASTILLA,exacto
10_4,MEDELLIN,10,4.0,I.E. REPUBLICA DE URUGUAY,True,False,20,7,16,69,59,64,883,1212,1156,I.E. REPUBLICA DE URUGUAY,I.E. REPUBLICA DE URUGUAY,CL 91A No 70A-123,6.2840648,-75.5775506,05COMUNA 5 CASTILLA,exacto
10_5,MEDELLIN,10,5.0,IE FELIX DE BEDOUT MORENO,True,False,12,8,6,37,9,26,376,589,497,IE FELIX DE BEDOUT MORENO,IE FELIX DE BEDOUT MORENO,CLL 108 No 70-39,6.3062053,-75.5695653,05COMUNA 5 CASTILLA,exacto
10_6,MEDELLIN,10,6.0,TERMINAL DE TRANSPORTES DEL NORTE,True,False,0,4,2,0,1,12,77,200,131,TERMINAL DE TRANSPORTES DEL NORTE,TERMINAL DE TRANSPORTES DEL NORTE,CR 64 C No 78  580,6.2793147,-75.5708468,05COMUNA 5 CASTILLA,exacto
11_1,MEDELLIN,11,1.0,I.E. CIUDADELA LAS AMERICAS,True,False,10,10,5,54,28,40,784,1156,944,I.E. CIUDADELA LAS AMERICAS,I.E. CIUDADELA LAS AMERICAS,CL 111 # 79-77,6.3085993,-75.5753986,06COMUNA 6 DOCE DE OCTUBRE,exacto
11_2,MEDELLIN,11,2.0,I.E. PROGRESAR,True,False,7,3,7,25,9,55,380,606,511,I.E. PROGRESAR,I.E. PROGRESAR,KR 83A # 106 D 5,6.3085984,-75.5805409,06COMUNA 6 DOCE DE OCTUBRE,exacto
11_3,MEDELLIN,11,3.0,SEC. ESC. LEON DE GREIFF,True,False,4,4,3,33,16,28,404,593,519,SEC. ESC. LEON DE GREIFF,SEC. ESC. LEON DE GREIFF,CL 101CC # 82E-72,6.3022944,-75.5808114,06COMUNA 6 DOCE DE OCTUBRE,exacto
11_4,MEDELLIN,11,4.0,I.E. DOCE DE OCTUBRE,True,False,4,8,4,30,16,49,673,553,693,I.E. DOCE DE OCTUBRE,I.E. DOCE DE OCTUBRE,KR 77B # 103-05,6.3030409,-75.5769557,06COMUNA 6 DOCE DE OCTUBRE,exacto
11_5,MEDELLIN,11,5.0,I.E. JOSE MARIA ESPINOSA PRIETO - CASD,True,False,0,3,2,11,4,9,183,408,202,I.E. JOSE MARIA ESPINOSA PRIETO - CASD,CASD JOSE MARIA ESPINOSA PRIETO,CLL 99 No 72-192,6.2970097,-75.5755596,06COMUNA 6 DOCE DE OCTUBRE,fuzzy
11_6,MEDELLIN,11,6.0,I.E. EL TRIUNFO SANTA TERESA,True,False,1,1,1,8,11,23,149,469,232,I.E. EL TRIUNFO SANTA TERESA,I.E. EL TRIUNFO SANTA TERESA,CALLE 104D # 82GG - 21,6.3065152,-75.5811794,06COMUNA 6 DOCE DE OCTUBRE,exacto
11_7,MEDELLIN,11,7.0,I.E. SANTA JUANA DE LESTONNAC,True,False,14,13,4,52,11,25,572,1053,482,I.E. SANTA JUANA DE LESTONNAC,IE SANTA JUANA DE LESTONACC,CRA 76A No 103C-43,6.3030437,-75.5755,06COMUNA 6 DOCE DE OCTUBRE,fuzzy
11_8,MEDELLIN,11,8.0,I.E. JESUS MARIA VALLE,True,False,4,3,2,10,11,23,254,646,326,I.E. JESUS MARIA VALLE,IE JESUS MARIA VALLE JARAMILLO,CLL 101 No 83-21,6.3004809,-75.5822333,06COMUNA 6 DOCE DE OCTUBRE,fuzzy
12_1,MEDELLIN,12,1.0,I.E.MAESTRO FERNANDO BOTERO,True,False,10,6,12,90,28,74,854,995,1060,I.E.MAESTRO FERNANDO BOTERO,I.E.MAESTRO FERNANDO BOTERO,CL 104 # 72A-80,6.3015698,-75.5719519,06COMUNA 6 DOCE DE OCTUBRE,exacto
12_2,MEDELLIN,12,2.0,I.E.ALFREDO COCK ARANGO,True,False,12,3,10,44,34,68,733,987,858,I.E.ALFREDO COCK ARANGO,I.E.ALFREDO COCK ARANGO,KR 72 # 99-55,6.2962348,-75.5737998,06COMUNA 6 DOCE DE OCTUBRE,exacto
12_3,MEDELLIN,12,3.0,SEC.ESC.SAN MARTIN DE PORRES,True,False,9,4,9,26,12,63,513,641,615,SEC.ESC.SAN MARTIN DE PORRES,SEC.ESC.SAN MARTIN DE PORRES,KR 75A # 97-135,6.2958628,-75.5786048,06COMUNA 6 DOCE DE OCTUBRE,exacto
12_4,MEDELLIN,12,4.0,I.E. KENNEDY,True,False,11,6,12,44,33,49,763,815,990,I.E. KENNEDY,I.E. KENNEDY,CRA 76A  No 92-200,6.2912824,-75.5815187,06COMUNA 6 DOCE DE OCTUBRE,exacto
12_5,MEDELLIN,12,5.0,SEC.CONCENTRACION EDUC.KENNEDY,True,False,12,3,2,47,17,34,544,869,542,SEC.CONCENTRACION EDUC.KENNEDY,SEC.CONCENTRACION EDUC.KENNEDY,CARRERA 76A # 92-131,6.2907455,-75.5816447,06COMUNA 6 DOCE DE OCTUBRE,exacto
12_6,MEDELLIN,12,6.0,I.E. JORGE ELIECER GAITAN,True,False,5,2,1,15,6,7,218,385,314,I.E. JORGE ELIECER GAITAN,I.E.JORGE ELIECER GAITAN(PPAL),CALLE 92 # 83-41,6.2899142,-75.5852278,06COMUNA 6 DOCE DE OCTUBRE,fuzzy
12_7,MEDELLIN,12,7.0,SEC. ESC. EL PEDREGAL,True,False,11,7,4,24,4,17,266,644,326,SEC. ESC. EL PEDREGAL,SEC. ESC. PEDREGAL,CLL 104E No 74-109,6.3034096,-75.5730437,06COMUNA 6 DOCE DE OCTUBRE,fuzzy
12_8,MEDELLIN,12,8.0,I.E.LA ESPERANZA,True,False,7,1,2,20,8,32,242,476,247,I.E.LA ESPERANZA,I.E.LA ESPERANZA,CRA 73B No 96-09,6.2931056,-75.5772736,06COMUNA 6 DOCE DE OCTUBRE,exacto
12_9,MEDELLIN,12,9.0,SENA PEDREGAL,True,False,0,0,0,0,0,2,3,22,11,SENA PEDREGAL,,,6.302009,-75.56857,,
13_1,MEDELLIN,13,1.0,I.E. SAN VICENTE DE PAUL,True,False,34,14,15,175,46,65,1003,890,1253,I.E. SAN VICENTE DE PAUL,I.E. SAN VICENTE DE PAUL,KR 71A # 79D-01,6.278927,-75.5790277,07COMUNA 7 ROBLEDO,exacto
13_2,MEDELLIN,13,2.0,SEC.ESC. EL DIAMANTE,True,False,15,14,14,52,16,67,842,795,978,SEC.ESC. EL DIAMANTE,SEC.ESC. EL DIAMANTE,CL 79A # 86-09,6.2853308,-75.5871781,07COMUNA 7 ROBLEDO,exacto
13_3,MEDELLIN,13,3.0,I.E.EL DIAMANTE (SEDE BTO),True,False,23,18,6,84,19,42,587,996,644,I.E.EL DIAMANTE (SEDE BTO),I.E.EL DIAMANTE (SEDE BTO),CARRERA 87 No. 79-05,6.2860819,-75.5881659,07COMUNA 7 ROBLEDO,exacto
13_4,MEDELLIN,13,4.0,I.E. VILLA DE LA CANDELARIA,True,False,6,11,12,66,37,52,747,1039,918,I.E. VILLA DE LA CANDELARIA,,,6.284927,-75.593699,,
13_5,MEDELLIN,13,5.0,I.E.FE Y ALEGRIA SAN JOSE,True,False,5,2,0,12,15,16,358,794,354,I.E.FE Y ALEGRIA SAN JOSE,I.E.FE Y ALEGRIA SAN JOSE,CALLE 86 # 92-60,6.2912166,-75.5900082,07COMUNA 7 ROBLEDO,exacto
13_6,MEDELLIN,13,6.0,TECNOLOGICO DE ANTIOQUIA,True,False,56,31,14,148,41,59,967,1316,1153,TECNOLOGICO DE ANTIOQUIA,TECNOLOGICO DE ANTIOQUIA,CALLE 78B # 72A-220,6.2796063,-75.5834527,07COMUNA 7 ROBLEDO,exacto
13_7,MEDELLIN,13,7.0,IE JESUS REY,True,False,9,3,3,31,14,30,448,797,504,IE JESUS REY,IE JESUS REY,CRA 88 No 77A-11,6.2834112,-75.5919937,07COMUNA 7 ROBLEDO,exacto
13_8,MEDELLIN,13,8.0,IE AURES,True,False,0,1,1,5,7,19,211,604,250,IE AURES,IE AURES,CRA 96A No 77E-15,6.2902077,-75.5965264,07COMUNA 7 ROBLEDO,exacto
14_1,MEDELLIN,14,1.0,IE MON GERARDO VALENCIA CANO,True,True,18,20,19,85,27,30,485,602,666,IE MON GERARDO VALENCIA CANO,IE MON GERARDO VALENCIA CANO,CL 65 # 74 B - 273,6.2691099,-75.5877256,07COMUNA 7 ROBLEDO,exacto
14_2,MEDELLIN,14,2.0,I.E. JORGE ROBLEDO,True,True,18,12,17,88,37,65,816,990,1235,I.E. JORGE ROBLEDO,I.E. JORGE ROBLEDO,CL 65 # 87-74,6.2768071,-75.5974006,07COMUNA 7 ROBLEDO,exacto
14_3,MEDELLIN,14,3.0,I.E.MARISCAL ROBLEDO,True,True,14,4,8,100,19,35,425,675,502,I.E.MARISCAL ROBLEDO,I.E.MARISCAL ROBLEDO,CALLE 65 # 84-87,6.2754017,-75.5958898,07COMUNA 7 ROBLEDO,exacto
14_4,MEDELLIN,14,4.0,SEC.ESC. SANTA MARGARITA,True,True,4,2,10,9,15,17,409,782,401,SEC.ESC. SANTA MARGARITA,SEC.ESC. SANTA MARGARITA,KR 105B # 62-68,6.2765446,-75.6159666,07COMUNA 7 ROBLEDO,exacto
14_5,MEDELLIN,14,5.0,INSTITUTO FERRINI - SEDE ROBLEDO,True,True,38,26,9,104,37,60,985,1567,1109,INSTITUTO FERRINI - SEDE ROBLEDO,,,6.277956,-75.592284,,
14_6,MEDELLIN,14,6.0,I.E.CAMILO MORA CARRASQUILLA,True,True,6,7,3,19,9,12,209,411,244,I.E.CAMILO MORA CARRASQUILLA,I.E.CAMILO MORA CARRASQUILLA,CALLE 62D # 94B-74,6.2782545,-75.6062301,07COMUNA 7 ROBLEDO,exacto
14_7,MEDELLIN,14,7.0,COL MAYOR DE ANTIOQUIA,True,True,30,32,10,84,23,31,399,839,491,COL MAYOR DE ANTIOQUIA,COL MAYOR DE ANTIOQUIA,CRA 78 No 65-46,6.2732352,-75.5919642,07COMUNA 7 ROBLEDO,exacto
14_8,MEDELLIN,14,8.0,IE BARRIO OLAYA HERRERA,True,True,1,2,3,0,7,4,58,204,89,IE BARRIO OLAYA HERRERA,IE BARRIO OLAYA HERRERA,CRA 101C No 58-44,6.3009858,-75.5786012,07COMUNA 7 ROBLEDO,exacto
15_1,MEDELLIN,15,1.0,I.E. JUAN DE DIOS CARVAJAL,True,True,29,11,17,122,22,74,937,914,989,I.E. JUAN DE DIOS CARVAJAL,I.E. JUAN DE DIOS CARVAJAL,CL 65AA # 36-39,6.2557426,-75.5510348,08COMUNA 8 VILLA HERMOSA,exacto
15_2,MEDELLIN,15,2.0,I.E. JUAN DE LA CRUZ POSADA,True,True,12,8,12,71,19,38,423,436,646,I.E. JUAN DE LA CRUZ POSADA,I.E. JUAN DE LA CRUZ POSADA,CL 62 # 39-22,6.253779,-75.5545627,08COMUNA 8 VILLA HERMOSA,exacto
15_3,MEDELLIN,15,3.0,I.E.JOSE CELESTINO MUTIS,True,True,11,8,3,27,16,27,439,631,589,I.E.JOSE CELESTINO MUTIS,I.E.JOSE CELESTINO MUTIS,CALLE 65 No. 45-15,6.2588911,-75.5569624,08COMUNA 8 VILLA HERMOSA,exacto
15_4,MEDELLIN,15,4.0,I.T.M. (CAMPUS FRATERNIDAD),True,True,6,1,1,23,3,11,186,417,218,I.T.M. (CAMPUS FRATERNIDAD),,,6.245338,-75.550949,,
15_5,MEDELLIN,15,5.0,SEC.ESC.JULIA AGUDELO,True,True,17,17,17,74,37,101,1155,1806,1348,SEC.ESC.JULIA AGUDELO,SEC.ESC.JULIA AGUDELO,CL 58 # 28-58,6.2499357,-75.5489633,08COMUNA 8 VILLA HERMOSA,exacto
15_6,MEDELLIN,15,6.0,SEC.ESC.NIÑO JESUS DE PRAGA,True,True,8,8,3,15,8,18,271,528,217,SEC.ESC.NIÃ‘O JESUS DE PRAGA,SEC.ESC.NIÑO JESUS DE PRAGA,CALLE 57C No. 23-200,6.2486595,-75.5457866,08COMUNA 8 VILLA HERMOSA,fuzzy
15_7,MEDELLIN,15,7.0,I.E.SOL DE ORIENTE,True,True,2,0,0,2,2,16,78,445,125,I.E.SOL DE ORIENTE,I.E.SOL DE ORIENTE,CARRERA 23 No. 56EH - 200,6.2449345,-75.5405979,08COMUNA 8 VILLA HERMOSA,exacto
15_8,MEDELLIN,15,8.0,I.E. LUIS CARLOS GALAN SARMIENTO,True,True,2,4,1,10,2,12,194,576,184,I.E. LUIS CARLOS GALAN SARMIENTO,IE LUIS CARLOS GALAN SARMIENTO PPAL,CRA 24B No 57EE-45,6.2503967,-75.5469371,08COMUNA 8 VILLA HERMOSA,fuzzy
15_9,MEDELLIN,15,9.0,IE ESC NORMAL SUPERIOR DE MEDELLIN,True,True,4,3,0,4,3,11,154,283,143,IE ESC NORMAL SUPERIOR DE MEDELLIN,IE ESC NORMAL SUPERIOR DE MEDELLIN,CRA 34 No 65 - 02,6.2544209,-75.5487597,08COMUNA 8 VILLA HERMOSA,exacto
16_1,MEDELLIN,16,1.0,SEC. ESC. VILLA TURBAY,True,True,0,1,4,3,4,10,114,386,198,SEC. ESC. VILLA TURBAY,I.E. VILLA TURBAY,KR 2 # 55F-17,6.2357365,-75.53021,08COMUNA 8 VILLA HERMOSA,fuzzy
16_2,MEDELLIN,16,2.0,SECCION ESCUELA HOGAR ANTIOQUIA,True,True,0,1,2,11,14,16,120,231,178,SECCION ESCUELA HOGAR ANTIOQUIA,SECCION ESCUELA HOGAR ANTIOQUIA,CALLE 52A No 12 34,6.2342969,-75.5389514,08COMUNA 8 VILLA HERMOSA,exacto
16_3,MEDELLIN,16,3.0,SEC ESC SOR MARIA LUISA COURBIN,True,True,3,8,6,22,10,45,539,665,490,SEC ESC SOR MARIA LUISA COURBIN,SEC ESC SOR MARIA LUISA COURBIN,KR 12 # 52-44,6.2340857,-75.5384505,08COMUNA 8 VILLA HERMOSA,exacto
16_4,MEDELLIN,16,4.0,I.E. SAN FRANCISCO DE ASIS,True,True,0,4,4,10,9,24,331,805,374,I.E. SAN FRANCISCO DE ASIS,I.E. SAN FRANCISCO DE ASIS,CL 56 # 16-18,6.2383791,-75.5397024,08COMUNA 8 VILLA HERMOSA,exacto
16_5,MEDELLIN,16,5.0,IE FELIX HENAO BOTERO,True,True,6,7,5,18,19,27,494,852,483,IE FELIX HENAO BOTERO,IE FELIX HENAO BOTERO,CLL 52 No 23-51,6.2408062,-75.5466873,08COMUNA 8 VILLA HERMOSA,exacto
16_6,MEDELLIN,16,6.0,IE GABRIEL GARCIA MARQUEZ,True,True,0,0,0,0,1,5,29,103,32,IE GABRIEL GARCIA MARQUEZ,IE GABRIEL GARCIA MARQUEZ,CRA 8A No. 57A - 93,6.2368344,-75.5336684,08COMUNA 8 VILLA HERMOSA,exacto
17_1,MEDELLIN,17,1.0,I.E.GUADALUPANO LA SALLE,True,False,24,12,11,87,33,71,829,1164,1064,I.E.GUADALUPANO LA SALLE,I.E.GUADALUPANO LA SALLE,CALLE 49 No. 17 B 21,6.236225,-75.5444385,09COMUNA 9 BUENOS AIRES,exacto
17_2,MEDELLIN,17,2.0,IE MERCEDITAS GOMEZ MARTINEZ,True,False,26,12,7,103,40,51,987,1183,1023,IE MERCEDITAS GOMEZ MARTINEZ,IE MERCEDITAS GOMEZ MARTINEZ,CL 45 # 18-03,6.23351,-75.5468405,09COMUNA 9 BUENOS AIRES,exacto
17_3,MEDELLIN,17,3.0,I.E. MANUEL JOSÉ CAYZEDO,True,False,22,20,12,66,25,39,582,986,700,I.E. MANUEL JOSÃ‰ CAYZEDO,MANUEL JOSÈ CAYZEDO,CLl 50 No 29-82,6.2414416,-75.5520487,09COMUNA 9 BUENOS AIRES,fuzzy
17_4,MEDELLIN,17,4.0,I.E. LA MILAGROSA,True,False,44,16,21,237,74,115,1660,1706,1940,I.E. LA MILAGROSA,I.E. LA MILAGROSA,KR 29 # 41-14,6.2351204,-75.5547173,09COMUNA 9 BUENOS AIRES,exacto
17_5,MEDELLIN,17,5.0,COLEGIO EUCARISTICO,True,False,16,15,11,43,28,44,615,822,668,COLEGIO EUCARISTICO,COLEGIO EUCARISTICO,CRA 28 No 42-62,6.2353641,-75.5535999,09COMUNA 9 BUENOS AIRES,exacto
17_6,MEDELLIN,17,6.0,SENA - SEDE BUENOS AIRES,True,False,5,9,4,8,6,13,150,386,169,SENA - SEDE BUENOS AIRES,SENA SD BUENOS AIRES,CLL 48 No 28-00,6.239476,-75.5523373,09COMUNA 9 BUENOS AIRES,fuzzy
17_7,MEDELLIN,17,7.0,IE ARZOBISPO TULIO BOTERO SALAZAR,True,False,3,5,2,3,3,15,98,278,128,IE ARZOBISPO TULIO BOTERO SALAZAR,IE ARZOBISPO TULIO BOTERO SALAZAR,CLL 49A No 03A - 006,6.2300656,-75.5326104,09COMUNA 9 BUENOS AIRES,exacto
17_8,MEDELLIN,17,8.0,IE MADRE LAURA,True,False,4,6,1,10,7,14,220,331,250,IE MADRE LAURA,IE MADRE LAURA,CLL 45 No 22A - 81,6.2354493,-75.5508485,09COMUNA 9 BUENOS AIRES,exacto
17_9,MEDELLIN,17,9.0,SECCION ESCUELA ALEJANDRO ECHAVARRIA,True,False,3,3,4,0,4,5,210,347,196,SECCION ESCUELA ALEJANDRO ECHAVARRIA,SECCION ESCUELA ALEJANDRO ECHAVARRIA,CARRERA 16 NO 49B 8,6.2349272,-75.5423472,09COMUNA 9 BUENOS AIRES,exacto
18_1,MEDELLIN,18,1.0,I.E. GABRIELA GOMEZ CARVAJAL,True,False,20,4,11,59,36,62,631,1020,795,I.E. GABRIELA GOMEZ CARVAJAL,IE LORETO GABRIELA GOMEZ CARVAJAL,KR 32 # 34-06,6.2312734,-75.5597163,09COMUNA 9 BUENOS AIRES,fuzzy
18_2,MEDELLIN,18,2.0,IE FEDERICO OZANAM,True,False,27,16,17,141,54,107,1148,1099,1392,IE FEDERICO OZANAM,IE FEDERICO OZANAM,CRA.36 No 45 - 08,6.2404694,-75.5582027,09COMUNA 9 BUENOS AIRES,exacto
18_3,MEDELLIN,18,3.0,ESC NORMAL SUPERIOR ANTIOQUEÑA,True,False,29,17,14,119,64,116,816,933,1195,ESC NORMAL SUPERIOR ANTIOQUEÃ‘A,ESC NORMAL SUPERIOR ANTIOQUEÑA,KR 36A # 48-55,6.2424929,-75.5584713,09COMUNA 9 BUENOS AIRES,fuzzy
18_4,MEDELLIN,18,4.0,SEC. ESC. JOSE DE SAN MARTIN,True,False,31,15,18,133,44,75,1101,1190,1321,SEC. ESC. JOSE DE SAN MARTIN,SEC. ESC. JOSE DE SAN MARTIN,CL 39 # 38- 21,6.2369565,-75.5626341,09COMUNA 9 BUENOS AIRES,exacto
18_5,MEDELLIN,18,5.0,SEC. ESC. JUAN CANCIO RESTREPO,True,False,4,2,1,6,10,6,121,224,126,SEC. ESC. JUAN CANCIO RESTREPO,SEC. ESC. JUAN CANCIO RESTREPO,CLL 45 No 31-63,6.2384978,-75.5556738,09COMUNA 9 BUENOS AIRES,exacto
19_1,MEDELLIN,19,1.0,I.E. TULIO OSPINA,True,False,23,12,14,101,46,57,592,944,1151,I.E. TULIO OSPINA,I.E. TULIO OSPINA,KR 51 D # 60-38,6.2591134,-75.5662527,10COMUNA 10 LA CANDELARIA,exacto
19_2,MEDELLIN,19,2.0,SEC. COL. AGUSTIN NIETO CABALLERO,True,False,8,3,5,45,22,22,246,346,423,SEC. COL. AGUSTIN NIETO CABALLERO,SEC ESC AGUSTIN NIETO CABALLERO,KR 40 # 59A-21,6.2523822,-75.5571236,10COMUNA 10 LA CANDELARIA,fuzzy
19_3,MEDELLIN,19,3.0,COLEGIO SALESIANO EL SUFRAGIO,True,False,72,17,13,197,86,111,1225,1440,1893,COLEGIO SALESIANO EL SUFRAGIO,COLEGIO SALESIANO EL SUFRAGIO,KR 39 # 54-31,6.248296,-75.5580802,10COMUNA 10 LA CANDELARIA,exacto
19_4,MEDELLIN,19,4.0,I.E. CENTRO FORMATIVO DE ANTIOQUIA -CEFA,True,False,53,38,23,159,62,174,1101,1828,1934,I.E. CENTRO FORMATIVO DE ANTIOQUIA -CEFA,I.E. CEFA,CL 50 # 41-55,6.2464754,-75.5619144,10COMUNA 10 LA CANDELARIA,manual
19_5,MEDELLIN,19,5.0,I.E. HECTOR ABAD GOMEZ,True,False,49,19,16,98,40,74,787,1365,1118,I.E. HECTOR ABAD GOMEZ,I.E. HECTOR ABAD GOMEZ,CL 50 #39-65,6.2455254,-75.5599889,10COMUNA 10 LA CANDELARIA,exacto
19_6,MEDELLIN,19,6.0,I.E. JAVIERA LONDOÑO,True,False,21,21,7,26,16,20,227,526,352,I.E. JAVIERA LONDOÃ‘O,I.E. JAVIERA LONDOÑO,CL 71 # 51D-26,6.2681464,-75.5649129,04COMUNA 4 ARANJUEZ,fuzzy
19_7,MEDELLIN,19,7.0,I.T.M. (PRADO CENTRO),True,False,7,7,7,10,8,13,181,421,222,I.T.M. (PRADO CENTRO),I.T.M. (PRADO CENTRO),CRA 51 No 58-69,6.2575764,-75.5662123,10COMUNA 10 LA CANDELARIA,exacto
2_1,MEDELLIN,2,1.0,I.E. NUEVO HORIZONTE - PAULO VI,True,False,3,4,5,35,13,33,297,538,431,I.E. NUEVO HORIZONTE - PAULO VI,IE NUEVO HORIZONTES No 2,CARRERA 37 No 107AA 21,6.2947441,-75.5460378,01COMUNA 1 POPULAR,fuzzy
2_2,MEDELLIN,2,2.0,SEC. ESC. DIVINA PROVIDENCIA,True,False,5,0,6,26,19,39,332,845,403,SEC. ESC. DIVINA PROVIDENCIA,SEC. ESC. DIVINA PROVIDENCIA,CL 108 NO 43B - 17,6.2973347,-75.5492118,01COMUNA 1 POPULAR,exacto
2_3,MEDELLIN,2,3.0,SEC.ESC.AGRIPINA MONTES DEL VALLE,True,False,4,6,6,14,16,55,380,497,487,SEC.ESC.AGRIPINA MONTES DEL VALLE,SEC.ESC.AGRIPINA MONTES DEL VALLE,CALLE 95 #42 B 44,6.2863543,-75.5503877,01COMUNA 1 POPULAR,exacto
2_4,MEDELLIN,2,4.0,I.E.FEDERICO CARRASQUILLA,True,False,4,5,4,4,4,13,160,568,179,I.E.FEDERICO CARRASQUILLA,I.E.FEDERICO CARRASQUILLA,Cra 45 # 108-110,6.2985923,-75.5494982,01COMUNA 1 POPULAR,exacto
2_5,MEDELLIN,2,5.0,I.E.GUADALUPE,True,False,3,7,6,35,3,39,301,713,343,I.E.GUADALUPE,I.E.GUADALUPE,Cra 42B 95A -23,6.2868493,-75.550005,01COMUNA 1 POPULAR,exacto
20_1,MEDELLIN,20,1.0,CENTRO COMERCIAL SAN DIEGO,True,False,135,43,64,656,321,197,1353,1025,3359,CENTRO COMERCIAL SAN DIEGO,CENTRO COMERCIAL SAN DIEGO,CL 34 # 43-66,6.2341186,-75.5686026,10COMUNA 10 LA CANDELARIA,exacto
20_2,MEDELLIN,20,2.0,ALCALDIA MUNICIPAL (SOTANO),True,False,32,8,10,80,54,108,773,1050,1357,ALCALDIA MUNICIPAL (SOTANO),ALCALDIA MUNICIPAL (SOTANO),CL 44 # 52-165,6.2447361,-75.5737805,10COMUNA 10 LA CANDELARIA,exacto
20_3,MEDELLIN,20,3.0,SENA,True,False,4,4,2,18,16,30,266,485,453,SENA,SENA,CL 51 # 57-70,6.2546931,-75.5748275,10COMUNA 10 LA CANDELARIA,exacto
20_4,MEDELLIN,20,4.0,UNIVERSIDAD CLARETIANA,True,False,14,25,2,13,5,4,109,476,127,UNIVERSIDAD CLARETIANA,UNIVERSIDAD CLARETIANA,CARRERA 55A # 61-06,6.2604137,-75.5701756,10COMUNA 10 LA CANDELARIA,exacto
20_5,MEDELLIN,20,5.0,PLAZA MINORISTA JOSE MARIA VILLA,True,False,1,0,0,0,2,4,52,56,47,PLAZA MINORISTA JOSE MARIA VILLA,,,6.257058,-75.573546,,
21_1,MEDELLIN,21,1.0,INSTITUTO JORGE ROBLEDO,True,False,120,32,54,369,113,68,821,945,1645,INSTITUTO JORGE ROBLEDO,INSTITUTO JORGE ROBLEDO,CL 51 # 65 - 72,6.2573614,-75.5820395,11COMUNA 11 LAURELES,exacto
21_2,MEDELLIN,21,2.0,I.E. MATER DEI,True,False,95,30,28,408,161,153,1077,579,2275,I.E. MATER DEI,INST.EDUC. MATER DEI,KR 68 # 42-70,6.247456,-75.5860724,11COMUNA 11 LAURELES,fuzzy
21_3,MEDELLIN,21,3.0,I.E. MARCO FIDEL SUAREZ,True,False,84,20,28,251,82,97,927,821,1429,I.E. MARCO FIDEL SUAREZ,,,6.25764,-75.586,,
21_4,MEDELLIN,21,4.0,COL. CALASANZ (FEM) CAMPESTRE ESCOLAPIAS,True,False,80,51,25,187,81,107,1148,865,1800,COL. CALASANZ (FEM) CAMPESTRE ESCOLAPIAS,COLEGIO CALASANZ FEMENINO,CALLE 55 No 77-71,6.2664968,-75.5902849,11COMUNA 11 LAURELES,manual
21_5,MEDELLIN,21,5.0,COL. SAN IGNACIO DE LOYOLA - SD MAYORES,True,False,32,12,12,60,31,23,383,337,556,COL. SAN IGNACIO DE LOYOLA - SD MAYORES,COL SAN IGNACIO SD MAYORES,CLL 48 No 68-98,6.2546717,-75.5866224,11COMUNA 11 LAURELES,fuzzy
21_6,MEDELLIN,21,6.0,SEC. ESC. CARLOS OBANDO VELASCO,True,False,31,6,5,36,16,37,192,148,319,SEC. ESC. CARLOS OBANDO VELASCO,SEC. ESC. CARLOS OBANDO VELASCO,CRA 67A No 42-24,6.2466932,-75.5855597,11COMUNA 11 LAURELES,exacto
21_7,MEDELLIN,21,7.0,INST. UNIVERSITARIA SALAZAR Y HERRERA,True,False,0,4,0,0,1,2,22,35,41,INST. UNIVERSITARIA SALAZAR Y HERRERA,INST. UNIVERSITARIA SALAZAR Y HERRERA,CRA 70 No 52-49,6.2604592,-75.5853259,11COMUNA 11 LAURELES,exacto
22_1,MEDELLIN,22,1.0,SEC.ESC. AGRUPACION COLOMBIA,True,False,72,25,27,298,139,115,1191,626,2527,SEC.ESC. AGRUPACION COLOMBIA,SEC.ESC. AGRUPACION COLOMBIA,CL 44A # 75-68,6.2505392,-75.5949142,11COMUNA 11 LAURELES,exacto
22_2,MEDELLIN,22,2.0,I.E. LUCRECIO JARAMILLO VELEZ,True,False,164,33,86,671,353,309,1578,640,4039,I.E. LUCRECIO JARAMILLO VELEZ,I.E. LUCRECIO JARAMILLO VELEZ,KR 79 # 38-59,6.2462873,-75.5992214,11COMUNA 11 LAURELES,exacto
22_3,MEDELLIN,22,3.0,COLEGIO BETHLEMITAS,True,False,105,50,44,230,132,122,744,408,1694,COLEGIO BETHLEMITAS,COLEGIO BETLEHEMITAS,TRV 36 No 72 - 93,6.2408545,-75.5955852,11COMUNA 11 LAURELES,fuzzy
22_4,MEDELLIN,22,4.0,COL. SAN IGNACIO DE LOYOLA - SD INFANTIL,True,False,48,29,15,147,60,58,521,449,732,COL. SAN IGNACIO DE LOYOLA - SD INFANTIL,COL.SAN IGNACIO (SEC.INFANTIL),CALLE 47D No. 75-83,6.254278,-75.59275,11COMUNA 11 LAURELES,fuzzy
22_5,MEDELLIN,22,5.0,CORP. UNIVERSITARIA ADVENTISTA - UNAC,True,False,50,28,16,123,58,66,701,398,1084,CORP. UNIVERSITARIA ADVENTISTA - UNAC,,,6.240713,-75.608806,,
22_6,MEDELLIN,22,6.0,UNIVERSIDAD PONTIFICIA BOLIVARIANA,True,False,184,82,56,296,150,144,1253,1070,2084,UNIVERSIDAD PONTIFICIA BOLIVARIANA,UNIVERSIDAD PONTIFICIA BOLIVARIANA,CIR 1 No 70 - 01,6.243,-75.589,11COMUNA 11 LAURELES,exacto
23_1,MEDELLIN,23,1.0,SEC. ESC. SANTA LUCIA,True,False,42,27,17,173,50,64,1230,865,1575,SEC. ESC. SANTA LUCIA,SEC. ESC. SANTA LUCIA,KR 89A # 47DD-71,6.2581429,-75.6060178,12COMUNA 12 LA AMERICA,exacto
23_2,MEDELLIN,23,2.0,I.E. CONCEJO DE MEDELLIN,True,False,164,38,71,657,188,194,2032,1449,3539,I.E. CONCEJO DE MEDELLIN,I.E. CONCEJO DE MEDELLIN,KR 82 # 47A-65,6.2584902,-75.6004229,12COMUNA 12 LA AMERICA,exacto
23_3,MEDELLIN,23,3.0,I.E. LA PIEDAD,True,False,38,15,11,149,53,57,800,798,1074,I.E. LA PIEDAD,I.E. LA PIEDAD,KR 81 NO 54 71,6.26924,-75.596553,12COMUNA 12 LA AMERICA,exacto
23_4,MEDELLIN,23,4.0,I.E.SANTA ROSA DE LIMA,True,False,45,17,16,95,23,56,595,698,799,I.E.SANTA ROSA DE LIMA,I.E.SANTA ROSA DE LIMA,CALLE 45G No. 80-95,6.255734,-75.599375,12COMUNA 12 LA AMERICA,exacto
23_5,MEDELLIN,23,5.0,IE LOLA GONZALEZ,True,False,24,19,7,51,14,28,449,558,492,IE LOLA GONZALEZ,IE LOLA GONZALEZ,CLL 47F No 94-63,6.2574157,-75.6109333,12COMUNA 12 LA AMERICA,exacto
23_6,MEDELLIN,23,6.0,INST. FERRINI - SD CALASANZ,True,False,28,24,10,35,23,44,534,643,726,INST. FERRINI - SD CALASANZ,INST FERRINI CALASANZ,CLL 51A No 81B - 33,6.2649823,-75.5988665,12COMUNA 12 LA AMERICA,fuzzy
24_1,MEDELLIN,24,1.0,COLEGIO LATINO,True,False,35,9,16,220,83,124,991,515,1762,COLEGIO LATINO,,,6.243248,-75.611431,,
24_2,MEDELLIN,24,2.0,SEC.ESC.RAFAEL URIBE URIBE,True,False,40,8,14,153,25,33,359,293,492,SEC.ESC.RAFAEL URIBE URIBE,SEC.ESC.RAFAEL URIBE URIBE,CARRERA 83 No. 42C - 54,6.2486908,-75.6043026,12COMUNA 12 LA AMERICA,exacto
24_3,MEDELLIN,24,3.0,SEC. ESC. PEDRO DE CASTRO,True,False,19,4,17,283,59,81,672,304,1292,SEC. ESC. PEDRO DE CASTRO,SEC. ESC. PEDRO DE CASTRO,CL 40 # 86A-101,6.2486612,-75.6081857,12COMUNA 12 LA AMERICA,exacto
24_4,MEDELLIN,24,4.0,I.E.FRANCISCO ANTONIO ZEA,True,False,43,21,16,145,70,87,590,369,919,I.E.FRANCISCO ANTONIO ZEA,I.E.FRANCISCO ANTONIO ZEA,KR 82 # 35-40,6.243983,-75.6039945,12COMUNA 12 LA AMERICA,exacto
24_5,MEDELLIN,24,5.0,I.E AMERICA,True,False,16,15,14,63,25,20,402,315,441,I.E AMERICA,I.E AMERICA,CALLE 34 EE No. 91-20,6.245908,-75.615729,12COMUNA 12 LA AMERICA,exacto
24_6,MEDELLIN,24,6.0,C4TA CIUDADELA,True,False,10,8,4,28,4,19,208,337,257,C4TA CIUDADELA,,,6.253391,-75.613906,,
24_7,MEDELLIN,24,7.0,LICEO SALAZAR Y HERRERA,True,False,87,53,34,116,96,112,1625,1172,2250,LICEO SALAZAR Y HERRERA,LICEO SALAZAR Y HERRERA,CLL 42C No 86-17,6.2487494,-75.6059736,12COMUNA 12 LA AMERICA,exacto
25_1,MEDELLIN,25,1.0,I.E. BLANQUIZAL,True,False,4,1,4,9,8,14,224,636,302,I.E. BLANQUIZAL,I.E. BLANQUIZAL,KR 92 DD # 57F - 43,6.2752093,-75.6056542,13COMUNA 13 SAN JAVIER,exacto
25_2,MEDELLIN,25,2.0,SEC. ESC. REPUBLICA DE PANAMA,True,False,10,7,10,43,14,33,604,528,679,SEC. ESC. REPUBLICA DE PANAMA,SEC. ESC. REPUBLICA DE PANAMA,KR 88 # 49DD-70,6.2630895,-75.6065877,13COMUNA 13 SAN JAVIER,exacto
25_3,MEDELLIN,25,3.0,I.E JUAN XXIII,True,False,5,13,11,21,8,11,319,630,310,I.E JUAN XXIII,I.E JUAN XXIII,CALLE 49 No 96A-11,6.261773,-75.610309,13COMUNA 13 SAN JAVIER,exacto
25_4,MEDELLIN,25,4.0,SEC. ESC. MONSEÑOR PERDOMO,True,False,25,15,16,113,39,69,886,794,1368,SEC. ESC. MONSEÃ‘OR PERDOMO,SEC. ESC. MONSEÑOR PERDOMO,CL 44 # 97-14,6.2558928,-75.614051,13COMUNA 13 SAN JAVIER,fuzzy
25_5,MEDELLIN,25,5.0,SEC.ESC.PIO XII,True,False,17,10,10,108,33,55,705,776,993,SEC.ESC.PIO XII,SEC.ESC.PIO XII,KR 98 # 44-52,6.2564304,-75.614097,13COMUNA 13 SAN JAVIER,exacto
25_6,MEDELLIN,25,6.0,I.E.STELLA VELEZ LONDOÑO,True,False,6,1,1,9,5,3,149,220,128,I.E.STELLA VELEZ LONDOÃ‘O,I.E.STELLA VELEZ LONDOÑO,CALLE 48DD No. 99D-118,6.2683087,-75.6161352,13COMUNA 13 SAN JAVIER,fuzzy
25_7,MEDELLIN,25,7.0,SEC ESC JUAN DE DIOS ARANZAZU,True,False,3,1,0,2,1,16,97,242,187,SEC ESC JUAN DE DIOS ARANZAZU,SEC ESC JUAN DE DIOS ARANZAZU,CLL 42 No 105 - 42,6.2559273,-75.6200164,13COMUNA 13 SAN JAVIER,exacto
26_1,MEDELLIN,26,1.0,I.E.LA INDEPENDENCIA,True,False,8,12,8,45,27,61,616,1105,1109,I.E.LA INDEPENDENCIA,I.E.LA INDEPENDENCIA,CALLE 39D No. 112 - 81,6.2529775,-75.623372,13COMUNA 13 SAN JAVIER,exacto
26_2,MEDELLIN,26,2.0,SEC.ESC.EL SOCORRO,True,False,5,1,1,50,13,21,306,717,348,SEC.ESC.EL SOCORRO,SEC.ESC.EL SOCORRO,CARRERA 102B No. 47B - 32,6.2592401,-75.6182627,13COMUNA 13 SAN JAVIER,exacto
26_3,MEDELLIN,26,3.0,SEC. ESC. BETANIA,True,False,3,3,9,27,16,35,851,719,722,SEC. ESC. BETANIA,SEC.ESC.MIXTA BETANIA,CRA 110 A  No. 34 A 82,6.2462225,-75.6226727,13COMUNA 13 SAN JAVIER,fuzzy
26_4,MEDELLIN,26,4.0,I.E.EL CORAZON,True,False,7,0,2,6,6,18,259,364,192,I.E.EL CORAZON,I.E.EL CORAZON,CARRERA 116F No. 34AA - 131,6.2475408,-75.6299079,13COMUNA 13 SAN JAVIER,exacto
26_5,MEDELLIN,26,5.0,I.E.EDUARDO SANTOS,True,False,2,4,1,24,15,21,267,494,314,I.E.EDUARDO SANTOS,I.E.EDUARDO SANTOS,CALLE 43 No. 120C - 77,6.2587397,-75.6289365,13COMUNA 13 SAN JAVIER,exacto
26_6,MEDELLIN,26,6.0,I.E. CARLOS VIECO ORTIZ,True,False,11,5,6,39,14,43,421,795,587,I.E. CARLOS VIECO ORTIZ,I.E.CARLOS VIECO,CALLE 40 No. 105 - 36,6.2547856,-75.6198539,13COMUNA 13 SAN JAVIER,fuzzy
26_7,MEDELLIN,26,7.0,SEC. ESC. AMOR AL NIÑO,True,False,1,4,3,3,4,16,168,452,198,SEC. ESC. AMOR AL NIÃ‘O,SEDE AMOR AL NIÑO,Calle 39 D No. 112-81( INT. 110),6.2530412,-75.6244561,13COMUNA 13 SAN JAVIER,fuzzy
26_8,MEDELLIN,26,8.0,I.E FUNDADORES,True,False,1,1,11,0,12,23,413,443,713,I.E FUNDADORES,,,6.259367,-75.616616,,
26_9,MEDELLIN,26,9.0,SEC. ESC. VEINTE DE JULIO,True,False,0,0,0,0,0,3,25,44,39,SEC. ESC. VEINTE DE JULIO,SEC.ESC.JACKELINE KENNEDY,CL 17 # 73-37,6.2225851,-75.5955838,16COMUNA 16 BELEN,manual
27_1,MEDELLIN,27,1.0,PARQUE COMERCIAL EL TESORO,True,False,116,31,73,630,1100,189,1171,253,4140,PARQUE COMERCIAL EL TESORO,,,6.196409,-75.558897,,
27_2,MEDELLIN,27,2.0,COL.MARYMOUNT,True,False,181,46,74,747,1794,254,1514,242,5517,COL.MARYMOUNT,COL.MARYMOUNT,CALLE 7 No. 25-64,6.2056287,-75.5561722,14COMUNA 14 EL POBLADO,exacto
27_3,MEDELLIN,27,3.0,COLEGIO SAN LUCAS,True,False,69,25,28,264,592,85,742,121,2242,COLEGIO SAN LUCAS,COLEGIO SAN LUCAS,CLL 20 SUR No 25B-91,6.1813493,-75.5664715,14COMUNA 14 EL POBLADO,exacto
27_4,MEDELLIN,27,4.0,SEC. ESC. GUILLERMO ECHAVARRIA MISAS,True,False,51,14,23,163,96,42,310,165,700,SEC. ESC. GUILLERMO ECHAVARRIA MISAS,ESC GUILLERMO ECHAVARRIA MISAS,CRA 43B No 9-61,6.2106366,-75.5714951,14COMUNA 14 EL POBLADO,fuzzy
27_5,MEDELLIN,27,5.0,COLEGIO CAMPESTRE MANZANARES,True,False,8,3,2,0,119,28,103,22,397,COLEGIO CAMPESTRE MANZANARES,COLEGIO CAMPESTRE MANZANARES,CARRERA 16 No 12 SUR 28,6.1848033,-75.5562621,14COMUNA 14 EL POBLADO,exacto
27_6,MEDELLIN,27,6.0,COLEGIO SAN JOSE DE LA SALLE,True,False,9,3,5,0,40,27,113,15,260,COLEGIO SAN JOSE DE LA SALLE,COLEGIO SAN JOSE DE LA SALLE,CALLE 9 No 10 337,6.2042579,-75.5465305,14COMUNA 14 EL POBLADO,exacto
28_1,MEDELLIN,28,1.0,POLITECNICO JAIME ISAZA CADAVID,True,False,153,57,77,495,406,146,1255,844,3011,POLITECNICO JAIME ISAZA CADAVID,POLITECNICO JAIME ISAZA CADAVID,CARRERA 48 No. 7 - 151,6.2092851,-75.5766121,14COMUNA 14 EL POBLADO,exacto
28_2,MEDELLIN,28,2.0,I.E. INEM JOSE FELIX DE RESTREPO,True,False,229,44,86,1078,967,194,1236,380,3527,I.E. INEM JOSE FELIX DE RESTREPO,INEM JOSE FELIX DE RESTREPO,CARRERA 48 No. 1 - 125,6.2067035,-75.577043,14COMUNA 14 EL POBLADO,fuzzy
28_3,MEDELLIN,28,3.0,UNIVERSIDAD EAFIT,True,False,239,47,133,1157,1158,257,1430,352,5033,UNIVERSIDAD EAFIT,UNIVERSIDAD EAFIT,KR 49 # 7 SUR 50,6.2000877,-75.5793923,14COMUNA 14 EL POBLADO,exacto
28_4,MEDELLIN,28,4.0,COL DE LA COMPAÑIA DE MARIA LA ENSEÑANZA,True,False,101,25,61,564,760,183,906,196,3575,COL DE LA COMPAÃ‘IA DE MARIA LA ENSEÃ‘ANZA,COL DE LA COMPAÑIA DE MARIA LA ENSEÑANZA,CALLE 9 SUR No 37-345,6.1945762,-75.5739114,14COMUNA 14 EL POBLADO,fuzzy
28_5,MEDELLIN,28,5.0,COL. SAN JOSE DE LAS VEGAS,True,False,214,49,80,691,678,161,1313,332,3033,COL. SAN JOSE DE LAS VEGAS,SAN JOSE DE LAS VEGAS,CRA 48 No 7SUR-52,6.1986132,-75.5768624,14COMUNA 14 EL POBLADO,fuzzy
28_6,MEDELLIN,28,6.0,COLEGIO PINARES ALTOVERDE,True,False,7,7,4,0,87,12,111,20,313,COLEGIO PINARES ALTOVERDE,COLEGIO PINARES ALTOVERDE,CARRERA 35 No 9 SUR 160,6.1913367,-75.5705791,14COMUNA 14 EL POBLADO,exacto
29_1,MEDELLIN,29,1.0,I.E. CAMILO C. RESTREPO,True,False,14,6,5,44,25,61,512,518,812,I.E. CAMILO C. RESTREPO,COLEGIO CAMILO C RESTREPO,Cra 65 D # 24-40,6.2258167,-75.5851799,15COMUNA 15 GUAYABAL,fuzzy
29_2,MEDELLIN,29,2.0,I.E.BENJAMIN HERRERA,True,False,29,12,23,156,41,236,709,667,1390,I.E.BENJAMIN HERRERA,I.E.BENJAMIN HERRERA,CL 25 # 52-140,6.2265428,-75.5797192,15COMUNA 15 GUAYABAL,exacto
29_3,MEDELLIN,29,3.0,I.E.CRISTO REY,True,False,42,19,19,210,73,142,987,738,1750,I.E.CRISTO REY,I.E.CRISTO REY,CALLE 2 SUR No. 50D - 30,6.2050568,-75.5816466,15COMUNA 15 GUAYABAL,exacto
29_4,MEDELLIN,29,4.0,SEC. ESC. REPUBLICA DE COSTA RICA,True,False,30,9,9,72,91,96,758,703,1271,SEC. ESC. REPUBLICA DE COSTA RICA,SECCION ESC REPUBLICA DE COSTA RICA,CARRERA 52 No 7 SUR -23,6.2028216,-75.5881928,15COMUNA 15 GUAYABAL,fuzzy
29_5,MEDELLIN,29,5.0,SEC.ESC.LA COLINA,True,False,24,17,8,106,34,65,623,708,974,SEC.ESC.LA COLINA,SEC.ESC.LA COLINA,KR 52C 12A SUR -23,6.1974991,-75.5917763,15COMUNA 15 GUAYABAL,exacto
29_6,MEDELLIN,29,6.0,I.E. LA SALLE DE CAMPOAMOR,True,False,30,19,8,145,53,69,742,586,1101,I.E. LA SALLE DE CAMPOAMOR,I.E. LA SALLE CAMPO AMOR,CARRERA 65B No. 4 - 49,6.2126656,-75.5876069,15COMUNA 15 GUAYABAL,fuzzy
29_7,MEDELLIN,29,7.0,SEC ESC CRISTO REY APOLO,True,False,17,11,6,39,24,39,228,373,394,SEC ESC CRISTO REY APOLO,SEC ESC CRISTO REY APOLO,CRA 50G No 3SUR-34,6.2054535,-75.5837377,15COMUNA 15 GUAYABAL,exacto
29_8,MEDELLIN,29,8.0,SEC. ESC. SANTISIMA TRINIDAD,True,False,0,0,0,0,1,0,0,3,2,SEC. ESC. SANTISIMA TRINIDAD,,,6.227965,-75.586401,,
3_1,MEDELLIN,3,1.0,I.E.  ASIA IGNACIANA,True,False,14,6,10,37,27,196,616,1585,1044,I.E.  ASIA IGNACIANA,I.E.  ASIA IGNACIANA,CL 122 # 51B-30,6.3062054,-75.5550912,02COMUNA 2 SANTA CRUZ,exacto
3_2,MEDELLIN,3,2.0,SEC.ESC.  MANUEL URIBE ANGEL,True,False,15,8,10,44,32,94,686,1578,886,SEC.ESC.  MANUEL URIBE ANGEL,SEC.ESC.  MANUEL URIBE ANGEL,KR 49A #107-65,6.2980908,-75.5537062,02COMUNA 2 SANTA CRUZ,exacto
3_3,MEDELLIN,3,3.0,SEC. ESC. FIDEL ANTONIO SALDARRIAGA,True,False,5,10,6,25,9,38,460,783,606,SEC. ESC. FIDEL ANTONIO SALDARRIAGA,SEC. ESC. FIDEL ANTONIO SALDARRIAGA,CRA 48 No 103B-01,6.2939796,-75.5538734,02COMUNA 2 SANTA CRUZ,exacto
3_4,MEDELLIN,3,4.0,SEC ESC LA FRONTERA,True,False,4,1,2,0,6,13,164,362,176,SEC ESC LA FRONTERA,SEC ESC LA FRONTERA,CALLE 122 No 50A 14,6.3060177,-75.5526666,02COMUNA 2 SANTA CRUZ,exacto
30_1,MEDELLIN,30,1.0,I.E. FATIMA NUTIBARA,True,False,73,24,31,278,98,142,1065,726,2083,I.E. FATIMA NUTIBARA,I.E. FATIMA NUTIBARA,CARRERA 65A No. 32B - 120,6.236839,-75.5829618,16COMUNA 16 BELEN,exacto
30_10,MEDELLIN,30,10.0,INSTITUCION EDUCATIVA ROSALIA SUAREZ,True,False,20,12,4,0,31,29,356,303,467,INSTITUCION EDUCATIVA ROSALIA SUAREZ,INSTITUCION EDUCATIVA ROSALIA SUAREZ,CALLE 30A No 80 18,6.232214,-75.6001044,16COMUNA 16 BELEN,exacto
30_2,MEDELLIN,30,2.0,SEC. ESC. SOFIA OSPINA DE NAVARRO,True,False,52,8,22,206,127,136,568,271,1495,SEC. ESC. SOFIA OSPINA DE NAVARRO,ESC.SOFIA OSPINA DE NAVARRO,CALLE 32 No. 65-20,6.2352032,-75.5831062,16COMUNA 16 BELEN,fuzzy
30_3,MEDELLIN,30,3.0,I.E.JUAN MARIA CESPEDES,True,False,116,20,43,480,155,232,1802,966,3355,I.E.JUAN MARIA CESPEDES,I.E.JUAN MARIA CESPEDES,CALLE 32B No. 76A - 48,6.235246,-75.5967539,16COMUNA 16 BELEN,exacto
30_4,MEDELLIN,30,4.0,I.E. GUILLERMO VALENCIA,True,False,34,17,11,177,41,134,855,722,1303,I.E. GUILLERMO VALENCIA,I.E. GUILLERMO VALENCIA,CALLE 23 No. 78 - 48,6.2268051,-75.5991161,16COMUNA 16 BELEN,exacto
30_5,MEDELLIN,30,5.0,UNID.DEPORTIVA ANDRES ESCOBAR,True,False,32,25,8,137,32,44,465,369,600,UNID.DEPORTIVA ANDRES ESCOBAR,UNID.DEPORTIVA ANDRES ESCOBAR,CRA 66B No 31A - 15,6.2344447,-75.5886541,16COMUNA 16 BELEN,exacto
30_6,MEDELLIN,30,6.0,LICEO SAN RAFAEL,True,False,57,32,15,238,49,96,785,729,1228,LICEO SAN RAFAEL,LICEO SAN RAFAEL,CALLE 30A No. 79 - 13,6.2322711,-75.5994495,16COMUNA 16 BELEN,exacto
30_7,MEDELLIN,30,7.0,COLEGIO SAN JUAN BOSCO,True,False,10,8,8,53,11,34,287,281,533,COLEGIO SAN JUAN BOSCO,COLEGIO SAN JUAN BOSCO,CLL 28 No 73-01,6.2289758,-75.5939467,16COMUNA 16 BELEN,exacto
30_8,MEDELLIN,30,8.0,IE YERMO Y PARRES,True,False,10,4,1,0,4,5,118,128,147,IE YERMO Y PARRES,IE YERMO Y PARRES,CALLE 28 No 77 84,6.2295483,-75.5978031,16COMUNA 16 BELEN,exacto
30_9,MEDELLIN,30,9.0,SECCION ESCUELA CARLOS FRANCO,True,False,2,1,2,0,2,3,33,46,50,SECCION ESCUELA CARLOS FRANCO,SECCION ESCUELA CARLOS FRANCO,CARRERA 77 No 25 67,6.2269138,-75.5984475,16COMUNA 16 BELEN,exacto
31_1,MEDELLIN,31,1.0,I.E. OCTAVIO HARRY - JACQUELINE KENNEDY,True,False,27,6,12,135,37,84,846,537,1290,I.E. OCTAVIO HARRY - JACQUELINE KENNEDY,,,6.22226,-75.595919,,
31_2,MEDELLIN,31,2.0,I.E.JOSE MARIA BERNAL,True,False,60,22,24,197,75,205,1286,847,1843,I.E.JOSE MARIA BERNAL,I.E.JOSE MARIA BERNAL,KR 70A # 13A-19,6.2203041,-75.5934301,16COMUNA 16 BELEN,exacto
31_3,MEDELLIN,31,3.0,INSTITUTO SAN CARLOS,True,False,126,25,46,589,223,169,1429,679,2718,INSTITUTO SAN CARLOS,INST.SAN CARLOS DE LA SALLE,DIAG. 79 # 15-123,6.2231485,-75.600054,16COMUNA 16 BELEN,manual
31_4,MEDELLIN,31,4.0,I.E.ALCALDIA DE MEDELLIN,True,False,17,8,14,114,42,76,1000,1010,1367,I.E.ALCALDIA DE MEDELLIN,I.E.ALCALDIA DE MEDELLIN,CL 2B NO 79-80,6.212395,-75.6033683,16COMUNA 16 BELEN,exacto
31_5,MEDELLIN,31,5.0,COLEGIO PADRE MANYANET,True,False,74,30,25,317,102,81,1087,575,1549,COLEGIO PADRE MANYANET,COLEGIO PADRE MANYANET,CARRERA 84F No. 8 - 29,6.2196838,-75.6088012,16COMUNA 16 BELEN,exacto
31_6,MEDELLIN,31,6.0,I.E. CAPILLA DEL ROSARIO,True,False,15,12,12,50,19,37,410,408,524,I.E. CAPILLA DEL ROSARIO,I.E.CAMPILLAS DEL ROSARIO,CALLE 6 SUR No. 79 - 195,6.2051797,-75.6021386,16COMUNA 16 BELEN,fuzzy
31_7,MEDELLIN,31,7.0,IE ANTONIO RICAURTE,True,False,21,16,4,33,18,31,424,596,459,IE ANTONIO RICAURTE,IE ANTONIO RICAURTE,CRA 80 No 2-11,6.2111736,-75.6033137,16COMUNA 16 BELEN,exacto
31_8,MEDELLIN,31,8.0,COL LA INMACULADA,True,False,61,46,30,103,95,75,1047,693,1607,COL LA INMACULADA,COL LA INMACULADA,CRA 76 No 12-57,6.221235,-75.5983757,16COMUNA 16 BELEN,exacto
32_1,MEDELLIN,32,1.0,I.E.RAMON GIRALDO CEBALLOS,True,False,48,13,24,245,83,108,1111,857,1625,I.E.RAMON GIRALDO CEBALLOS,I.E.RAMON GIRALDO CEBALLOS,CL 21 NO 82A 56,6.2266378,-75.604409,16COMUNA 16 BELEN,exacto
32_2,MEDELLIN,32,2.0,UNIVERSIDAD DE MEDELLIN,True,False,98,31,37,411,99,116,1462,1145,2039,UNIVERSIDAD DE MEDELLIN,UNIVERSIDAD DE MEDELLIN,KR 87 # 30-65,6.230437,-75.6102397,16COMUNA 16 BELEN,exacto
32_3,MEDELLIN,32,3.0,I.E HORACIO MUÑOZ SUESCUN,True,False,46,12,23,216,80,80,853,648,1497,I.E HORACIO MUÃ‘OZ SUESCUN,I.E HORACIO MUÑOZ SUESCUN,CL 32 # 86-35,6.2343401,-75.6093606,16COMUNA 16 BELEN,fuzzy
32_4,MEDELLIN,32,4.0,I.E.REPUBLICA DE VENEZUELA,True,False,9,6,5,52,32,31,608,532,708,I.E.REPUBLICA DE VENEZUELA,I.E.REPUBLICA DE VENEZUELA,CL 31C # 89C-62,6.2346004,-75.6145772,16COMUNA 16 BELEN,exacto
32_5,MEDELLIN,32,5.0,I. E. SAN ROBERTO BELARMINO,True,False,21,11,16,54,22,31,410,465,478,I. E. SAN ROBERTO BELARMINO,I. E. SAN ROBERTO BELARMINO,CALLE 32B No. 83 - 39,6.2353674,-75.6067552,16COMUNA 16 BELEN,exacto
32_6,MEDELLIN,32,6.0,INST. SALESIANO PEDRO JUSTO BERRIO,True,False,11,5,2,16,3,14,168,148,177,INST. SALESIANO PEDRO JUSTO BERRIO,INSTITUTO PEDRO JUSTO BERRIO,CRA 87A No 32A-107,6.2367936,-75.6113159,16COMUNA 16 BELEN,fuzzy
32_7,MEDELLIN,32,7.0,IE PEDRO OCTAVIO AMADO,True,False,1,3,1,0,4,2,85,166,108,IE PEDRO OCTAVIO AMADO,IE PEDRO OCTAVIO AMADO,CR 88A  No 18A - 15,6.2220479,-75.6107039,16COMUNA 16 BELEN,exacto
4_1,MEDELLIN,4,1.0,I.E. BARRIO SANTA CRUZ,True,False,3,7,10,27,13,38,521,1048,539,I.E. BARRIO SANTA CRUZ,I.E. BARRIO SANTA CRUZ,CL 103 # 43A - 45,6.2921997,-75.5505565,02COMUNA 2 SANTA CRUZ,exacto
4_2,MEDELLIN,4,2.0,SEC. ESC. ARZOBISPO GARCIA,True,False,6,8,6,30,10,45,820,1035,680,SEC. ESC. ARZOBISPO GARCIA,SEC. ESC. ARZOBISPO GARCIA,KR 49 # 98-48,6.290176,-75.5560204,02COMUNA 2 SANTA CRUZ,exacto
4_3,MEDELLIN,4,3.0,I.E. REPUBLICA DE HONDURAS,True,False,15,5,2,37,13,38,566,1071,607,I.E. REPUBLICA DE HONDURAS,I.E. REPUBLICA DE HONDURAS,KR 50B # 97A-30,6.290896,-75.5594336,02COMUNA 2 SANTA CRUZ,exacto
5_1,MEDELLIN,5,1.0,I.E. MONTECARLO GUILLERMO GAVIRIA CORREA,True,False,12,6,9,50,26,47,768,1699,962,I.E. MONTECARLO GUILLERMO GAVIRIA CORREA,IE MONTECARLO GUILLERMO GAVIRIA,CARRERA 36 # 85 B 140,6.278153,-75.54657,03COMUNA 3 MANRIQUE,fuzzy
5_2,MEDELLIN,5,2.0,IE LAS NIEVES,True,False,14,10,7,38,19,66,649,1243,658,IE LAS NIEVES,IE LAS NIEVES,CLL 82 No 39 - 69,6.2736359,-75.5490417,03COMUNA 3 MANRIQUE,exacto
5_3,MEDELLIN,5,3.0,I.E. MANUELA BELTRAN,True,False,7,8,16,50,38,37,649,593,696,I.E. MANUELA BELTRAN,I.E. MANUELA BELTRAN,KR 37 # 71-47,6.2661811,-75.5485417,03COMUNA 3 MANRIQUE,exacto
5_4,MEDELLIN,5,4.0,SEC ESC SAN JOSE (IE MANUELA BELTRAN),True,False,17,10,6,62,34,59,922,1624,967,SEC ESC SAN JOSE (IE MANUELA BELTRAN),SEC ESC SAN JOSE (IE MANUELA BELTRAN),CL 71 No 33-18,6.2655756,-75.5459176,03COMUNA 3 MANRIQUE,exacto
5_5,MEDELLIN,5,5.0,I.E.RAMON MUNERA LOPERA,True,False,4,3,2,7,9,11,150,729,206,I.E.RAMON MUNERA LOPERA,I.E.RAMON MUNERA LOPERA,Cra 30A  # 77 - 04,6.2693528,-75.5436412,03COMUNA 3 MANRIQUE,exacto
5_6,MEDELLIN,5,6.0,IE BELLO ORIENTE,True,False,1,1,1,0,2,3,36,189,75,IE BELLO ORIENTE,IE BELLO ORIENTE,CRA 23B No 84B-27,6.2768963,-75.5382173,03COMUNA 3 MANRIQUE,exacto
5_7,MEDELLIN,5,7.0,IE JOSE ROBERTO VASQUEZ,True,False,3,5,1,3,1,11,137,405,135,IE JOSE ROBERTO VASQUEZ,IE JOSE ROBERTO VASQUEZ,CLL 76 No 39-160,6.2686053,-75.5501702,03COMUNA 3 MANRIQUE,exacto
5_8,MEDELLIN,5,8.0,SEC. ESC. BALDOMERO SANIN CANO,True,False,2,7,5,0,6,30,293,761,350,SEC. ESC. BALDOMERO SANIN CANO,,,6.26903,-75.54831,,
6_1,MEDELLIN,6,1.0,I.E. JOSE ANTONIO GALAN,True,False,9,12,13,49,23,46,719,1098,807,I.E. JOSE ANTONIO GALAN,I.E. JOSE ANTONIO GALAN,KR 44A NO 93-87,6.28494,-75.5521444,03COMUNA 3 MANRIQUE,exacto
6_2,MEDELLIN,6,2.0,I.E. HERNAN TORO AGUDELO,True,False,25,19,11,72,26,63,1024,1552,1270,I.E. HERNAN TORO AGUDELO,I.E. HERNAN TORO AGUDELO,Cra 45 # 72-80,6.2682192,-75.5548092,03COMUNA 3 MANRIQUE,exacto
6_3,MEDELLIN,6,3.0,IE RODRIGO LARA BONILLA - SEDE LA SUSANA,True,False,19,4,6,44,21,21,468,802,540,IE RODRIGO LARA BONILLA - SEDE LA SUSANA,SEC ESC SUSANA D. (IE RODRIGO LARA BONI),KR 41B # 66E-50,6.2624287,-75.5532465,03COMUNA 3 MANRIQUE,manual
6_4,MEDELLIN,6,4.0,IE SAN JUAN BAUTISTA DE LA SALLE,True,False,6,5,0,12,5,19,213,556,227,IE SAN JUAN BAUTISTA DE LA SALLE,IE SAN JUAN BAUTISTA DE LA SALLE,CLL 93 No 40-42,6.284409,-75.5493091,03COMUNA 3 MANRIQUE,exacto
7_1,MEDELLIN,7,1.0,COL AGUSTINIANO DE SAN NICOLAS,True,False,27,6,10,85,34,184,1043,1325,1439,COL AGUSTINIANO DE SAN NICOLAS,COL AGUSTINIANO DE SAN NICOLAS,KR 48 # 93-13,6.284794,-75.5555856,04COMUNA 4 ARANJUEZ,exacto
7_2,MEDELLIN,7,2.0,I.E. MONSEÑOR FRANCISCO CRISTOBAL TORO,True,False,30,13,10,101,25,94,859,1101,1119,I.E. MONSEÃ‘OR FRANCISCO CRISTOBAL TORO,I.E. MONSEÑOR FCO. CRISTOBAL T,Cra 50D # 90-49,6.2825483,-75.5604068,04COMUNA 4 ARANJUEZ,fuzzy
7_3,MEDELLIN,7,3.0,I.E. GILBERTO ALZATE AVENDAÑO,True,False,11,7,16,82,19,77,853,1267,947,I.E. GILBERTO ALZATE AVENDAÃ‘O,I.E. GILBERTO ALZATE AVENDAÑO,CL 92 # 51A-100,6.2836258,-75.5626718,04COMUNA 4 ARANJUEZ,fuzzy
7_4,MEDELLIN,7,4.0,I.E. CAMPO VALDES,True,False,22,14,12,55,30,52,838,1365,939,I.E. CAMPO VALDES,I.E. CAMPO VALDES,CL 83 # 47-33,6.2752956,-75.5556649,04COMUNA 4 ARANJUEZ,exacto
7_5,MEDELLIN,7,5.0,I.E.SAN JUAN BOSCO,True,False,8,3,3,12,8,17,231,408,274,I.E.SAN JUAN BOSCO,I.E.SAN JUAN BOSCO,CALLE 82 # 50C-10,6.2758977,-75.5610219,04COMUNA 4 ARANJUEZ,exacto
7_6,MEDELLIN,7,6.0,I.E. JOSE EUSEBIO CARO,True,False,7,4,5,6,6,18,220,449,268,I.E. JOSE EUSEBIO CARO,IE JOSE EUSEVIO CARO,CRA 50B No 93 - 106,6.2855519,-75.5587869,04COMUNA 4 ARANJUEZ,fuzzy
7_7,MEDELLIN,7,7.0,IE LORENZA VILLEGAS DE SANTOS,True,False,5,4,1,5,3,19,197,470,255,IE LORENZA VILLEGAS DE SANTOS,IE LORENZA VILLEGAS DE SANTOS,CRA 51 No 87 - 40,6.2802524,-75.5607509,04COMUNA 4 ARANJUEZ,exacto
7_8,MEDELLIN,7,8.0,SEC ESC TOMAS CARRASQUILLA No 1,True,False,0,3,1,3,3,7,88,236,106,SEC ESC TOMAS CARRASQUILLA NO 1,SEC ESC TOMAS CARRASQUILLA No 1,CRA 52 No 92 - 05,6.2838164,-75.563192,04COMUNA 4 ARANJUEZ,exacto
8_1,MEDELLIN,8,1.0,I.E. ALFONSO MORA NARANJO,True,False,14,15,14,87,14,81,848,1003,1014,I.E. ALFONSO MORA NARANJO,I.E. ALFONSO MORA NARANJO,KR 48A # 77-68,6.271335,-75.5572578,04COMUNA 4 ARANJUEZ,exacto
8_2,MEDELLIN,8,2.0,I.E. JOSE MARIA BRAVO MARQUEZ,True,False,18,10,9,54,22,43,475,863,731,I.E. JOSE MARIA BRAVO MARQUEZ,I.E. JOSE MARIA BRAVO MARQUEZ,CL 70 # 47A-04,6.2656458,-75.557353,04COMUNA 4 ARANJUEZ,exacto
8_3,MEDELLIN,8,3.0,I.E. FRANCISCO MIRANDA,True,False,31,9,12,65,38,58,759,1373,1045,I.E. FRANCISCO MIRANDA,I.E. FRANCISCO MIRANDA,KR 51C # 79-56,6.2741152,-75.5635754,04COMUNA 4 ARANJUEZ,exacto
8_4,MEDELLIN,8,4.0,I.E. JAVIERA LONDOÑO SEVILLA,True,False,28,31,16,100,33,32,575,1785,909,I.E. JAVIERA LONDOÃ‘O SEVILLA,,,6.267915,-75.564933,,
8_5,MEDELLIN,8,5.0,I.E. EL BOSQUE,True,False,5,1,5,22,9,9,159,660,241,I.E. EL BOSQUE,I.E. EL BOSQUE,Cra 58 # 85B 81,6.2798373,-75.5672473,04COMUNA 4 ARANJUEZ,exacto
8_6,MEDELLIN,8,6.0,SEC ESC JULIO ARBOLEDA,True,False,2,1,2,2,1,6,115,266,146,SEC ESC JULIO ARBOLEDA,SEC ESC JULIO ARBOLEDA,CRA 51 No 78-15,6.2726019,-75.5624789,04COMUNA 4 ARANJUEZ,exacto
8_7,MEDELLIN,8,7.0,SEC. ESC. PORFIRIO BARBA JACOB,True,False,2,7,0,0,0,1,44,92,46,SEC. ESC. PORFIRIO BARBA JACOB,ESCUELA SECCION PORFIRIO BARBA JACOB,CARRERA 47 No 74 20,6.2689592,-75.5564298,04COMUNA 4 ARANJUEZ,fuzzy
8_8,MEDELLIN,8,8.0,IE FE Y ALEGRIA LUIS AMIGO MORAVIA,True,False,2,2,4,0,1,3,60,225,76,IE FE Y ALEGRIA LUIS AMIGO MORAVIA,IE FE Y ALEGRIA LUIS AMIGO MORAVIA,CARRERA 58 No 84 40,6.279136,-75.5664082,04COMUNA 4 ARANJUEZ,exacto
9_1,MEDELLIN,9,1.0,I.E. JULIO CESAR GARCIA,True,False,32,6,15,113,37,66,943,937,1360,I.E. JULIO CESAR GARCIA,I.E. JULIO CESAR GARCIA,CL 111A # 65-26,6.3064327,-75.5641527,05COMUNA 5 CASTILLA,exacto
9_2,MEDELLIN,9,2.0,IE DIEGO ECHAVARRIA MISAS,True,False,30,7,9,83,41,83,1009,1107,1471,IE DIEGO ECHAVARRIA MISAS,IE DIEGO ECHAVARRIA MISAS,CALLE 111 No 70 68,6.3085715,-75.5691596,05COMUNA 5 CASTILLA,exacto
9_3,MEDELLIN,9,3.0,I.E. PBRO ANTONIO JOSE BERNAL LONDOÑO SJ,True,False,29,7,11,130,41,59,577,1175,1080,I.E. PBRO ANTONIO JOSE BERNAL LONDOÃ‘O SJ,IE PRESBITERO ANTONIO JOSE BERNAL LONDOÑ,CL 105A # 63A-200,6.301311,-75.559322,05COMUNA 5 CASTILLA,fuzzy
9_4,MEDELLIN,9,4.0,I.E.SEBASTIAN DE BELALCAZAR,True,False,5,2,0,15,2,19,210,395,281,I.E.SEBASTIAN DE BELALCAZAR,I.E.SEBASTIAN DE BELALCAZAR,CALLE 103EE  # 63D-185,6.297786,-75.564457,05COMUNA 5 CASTILLA,exacto
9_5,MEDELLIN,9,5.0,SEC ESC TRICENTENARIO,True,False,18,14,5,109,24,47,633,1169,809,SEC ESC TRICENTENARIO,SEC ESC TRICENTENARIO,CRA 63A No 94A-23,6.289385,-75.5662072,05COMUNA 5 CASTILLA,exacto
9_6,MEDELLIN,9,6.0,SEC ESC TOSCANA,True,False,5,2,3,17,4,14,173,388,245,SEC ESC TOSCANA,SEC ESC TOSCANA,CLL 111G No 64A-16,6.3062684,-75.5593297,05COMUNA 5 CASTILLA,exacto
90_1,MEDELLIN,90,1.0,ESTADIO ATANASIO GIRARDOT,True,False,88,10,45,369,195,161,1708,1894,3195,ESTADIO ATANASIO GIRARDOT,ESTADIO ATANASIO GIRARDOT,CL 48 # 73 - 10,6.2566311,-75.5900927,,exacto
90_2,MEDELLIN,90,2.0,PLAZA MAYOR CTRO EXPOS. CONVEN,True,False,84,16,35,299,194,143,1435,1163,2583,PLAZA MAYOR CTRO EXPOS. CONVEN,PLAZA MAYOR CTRO EXPOS. CONVEN,CL 41 # 55 - 35,6.2417615,-75.5768265,,exacto
98_1,MEDELLIN,98,1.0,RECLUSION DE MUJERES PEDREGAL MEDELLIN,True,False,0,0,0,0,0,1,3,9,3,RECLUSION DE MUJERES PEDREGAL MEDELLIN,RECLUSION DE MUJERES PEDREGAL MEDELLIN,KM 6 VIA AL MAR FINCA LA TERES,6.2835613,-75.6280858,,exacto
98_2,MEDELLIN,98,2.0,ESTABLECIMIENTO CARCELARIO PEDREGAL MEDE,True,False,0,0,0,0,0,0,0,15,5,ESTABLECIMIENTO CARCELARIO PEDREGAL MEDE,ESTABLECIMIENTO CARCELARIO PEDREGAL MEDE,KM 6 VIA AL MAR FINCA LA TERES,6.28354,-75.6281234,,exacto
98_3,MEDELLIN,98,3.0,CENTRO CARLOS LLERAS RESTREPO,True,False,1,0,1,0,0,0,12,20,24,CENTRO CARLOS LLERAS RESTREPO,CENTRO CARLOS LLERAS RESTREPO,CALLE 65C No. 94C-80,6.2852513,-75.6025792,,exacto
99_1,MEDELLIN,99,1.0,CENTRO EDUCATIVO EL MANZANILLO,True,False,3,2,0,0,5,5,122,71,169,CENTRO EDUCATIVO EL MANZANILLO,CENTRO EDUCATIVO EL MANZANILLO,CLL 5A SUR No 89A - 11 VEREDA MANZANILLO,6.2068986,-75.6140905,17CORREGIMIENTO ALTAVISTA,exacto
99_10,MEDELLIN,99,10.0,IE FE Y ALEGRIA EL LIMONAR,True,False,10,7,3,33,18,42,394,1229,551,IE FE Y ALEGRIA EL LIMONAR,IE FE Y ALEGRIA EL LIMONAR,CL 55 SUR No 60 A-13 SAN ANTONIO DE PRADO,6.174708,-75.6421088,18CORR.  SAN ANTONIO DE PRADO,exacto
99_17,MEDELLIN,99,17.0,IE HECTOR ROGELIO MONTOYA,True,False,2,2,1,2,7,9,157,168,176,IE HECTOR ROGELIO MONTOYA,IE HECTOR ROGELIO MONTOYA,CLL 20 No 32-60,6.3435988,-75.6887088,19CORREGIMIENTO PALMITAS,exacto
99_2,MEDELLIN,99,2.0,C.E. MARIA PAULINA TABORDA,True,False,1,0,0,0,0,0,22,36,15,C.E. MARIA PAULINA TABORDA,,,6.247855,-75.636229,,
99_3,MEDELLIN,99,3.0,I.E. DEBORA ARANGO PEREZ,True,False,7,3,5,32,15,81,461,844,480,I.E. DEBORA ARANGO PEREZ,I.E. DEBORA ARANGO PEREZ,CL 18 No 103-60 ALTAVISTA,6.2209074,-75.6137259,17CORREGIMIENTO ALTAVISTA,exacto
99_33,MEDELLIN,99,33.0,CASA DE GOBIERNO SANTA ELENA,True,False,17,2,6,120,18,32,268,330,389,CASA DE GOBIERNO SANTA ELENA,CASA DE GOBIERNO SANTA ELENA,SANTA ELENA,6.209568,-75.4976222,21CORREGIMIENTO SANTA ELENA,exacto
99_34,MEDELLIN,99,34.0,COLISEO SANTA ELENA,True,False,34,9,7,0,26,14,356,542,402,COLISEO SANTA ELENA,COLISEO SANTA ELENA,CORREGIMIENTO SANTA ELENA,6.2107841,-75.4971002,21CORREGIMIENTO SANTA ELENA,exacto
99_35,MEDELLIN,99,35.0,C.E. JUAN ANDRES PATIÑO,True,False,0,1,0,0,0,0,18,37,19,C.E. JUAN ANDRES PATIÃ‘O,,,6.23194,-75.48003,,
99_36,MEDELLIN,99,36.0,C.E. MEDIA LUNA,True,False,0,0,0,0,0,1,24,20,22,C.E. MEDIA LUNA,,,6.238507,-75.517772,,
99_4,MEDELLIN,99,4.0,PARROQ SAN JOSEMARIA ESCRIVA DE BALAGUER,True,False,2,0,0,0,2,1,25,37,56,PARROQ SAN JOSEMARIA ESCRIVA DE BALAGUER,,,6.23413,-75.626564,,
99_CENTRO DE DESARROLLO SOCIAL (CDS),MEDELLIN,99,,CENTRO DE DESARROLLO SOCIAL (CDS),False,False,5,7,7,0,12,26,344,699,424,CENTRO DE DESARROLLO SOCIAL (CDS),CENTRO DE DESARROLLO SOCIAL (CDS),CRA 79 No 40 SUR - 40,6.1854238,-75.6559188,18CORR.  SAN ANTONIO DE PRADO,exacto
99_I.E. MANUEL J. BETANCUR,MEDELLIN,99,,I.E. MANUEL J. BETANCUR,False,False,30,11,14,0,42,63,937,1628,1029,I.E. MANUEL J. BETANCUR,I.E.MANUEL DE J.BETANCUR,CRA 81 No 43 SUR - 38,6.1836668,-75.6574952,18CORR.  SAN ANTONIO DE PRADO,fuzzy
99_I.E. PRESBITERO JUAN J. ESCOBAR,MEDELLIN,99,,I.E. PRESBITERO JUAN J. ESCOBAR,False,False,9,6,4,0,13,53,269,561,376,I.E. PRESBITERO JUAN J. ESCOBAR,I.E. PRESBITERO JUAN J. ESCOBAR,CLL 62 No 128-120,6.2783126,-75.6346333,20CORREGIMIENTO SAN CRISTOBAL,exacto
99_IE ALFONSO UPEGUI OROZCO,MEDELLIN,99,,IE ALFONSO UPEGUI OROZCO,False,False,2,2,8,0,15,21,268,343,303,IE ALFONSO UPEGUI OROZCO,IE ALFONSO UPEGUI OROZCO,CALLE 64B No 117 177,6.2878863,-75.6098148,20CORREGIMIENTO SAN CRISTOBAL,exacto
99_IE ANGELA RESTREPO MORENO,MEDELLIN,99,,IE ANGELA RESTREPO MORENO,False,False,3,1,2,0,14,3,113,304,168,IE ANGELA RESTREPO MORENO,IE ANGELA RESTREPO MORENO,CARRERA 55 No 48C SUR 90,6.177514,-75.6373913,18CORR.  SAN ANTONIO DE PRADO,exacto
99_IE LOMA HERMOSA,MEDELLIN,99,,IE LOMA HERMOSA,False,False,0,1,3,0,11,25,184,351,193,IE LOMA HERMOSA,IE LOMA HERMOSA,CRA 123B No 53B-05,6.2704707,-75.6295618,20CORREGIMIENTO SAN CRISTOBAL,exacto
99_IE LUSITANIA,MEDELLIN,99,,IE LUSITANIA,False,False,7,11,10,0,16,39,421,1211,569,IE LUSITANIA,IE LUSITANIA,CRA 109A No 63B-320,6.2791544,-75.6181553,20CORREGIMIENTO SAN CRISTOBAL,exacto
99_IE MONSEÑOR VICTOR WIEDEMANN,MEDELLIN,99,,IE MONSEÑOR VICTOR WIEDEMANN,False,False,12,7,3,0,9,22,400,749,483,IE MONSEÃ‘OR VICTOR WIEDEMANN,IE MONSEÑOR VICTOR WIEDEMANN,DIAG 60E No. 41A SUR - 30,6.1840473,-75.6423211,18CORR.  SAN ANTONIO DE PRADO,fuzzy
99_IE SAN ANTONIO DE PRADO,MEDELLIN,99,,IE SAN ANTONIO DE PRADO,False,False,23,11,21,0,52,70,1181,1363,1385,IE SAN ANTONIO DE PRADO,IE SAN ANTONIO DE PRADO,CRA 79 No. 42 SUR - 39,6.1842588,-75.656197,18CORR.  SAN ANTONIO DE PRADO,exacto
99_IE SAN CRISTOBAL,MEDELLIN,99,,IE SAN CRISTOBAL,False,False,22,4,9,0,25,238,711,869,1093,IE SAN CRISTOBAL,IE SAN CRISTOBAL,CRA 131 No 65-7,6.2806924,-75.6365856,20CORREGIMIENTO SAN CRISTOBAL,exacto
99_PAR. BIBLIOTECA JOSE HORACIO BETANCUR,MEDELLIN,99,,PAR. BIBLIOTECA JOSE HORACIO BETANCUR,False,False,2,10,7,0,9,19,216,446,251,PAR. BIBLIOTECA JOSE HORACIO BETANCUR,P BIBL JOSE HORACIO BETANCUR,CLL 50 E SUR 75 A - 94,6.1773092,-75.6544411,18CORR.  SAN ANTONIO DE PRADO,fuzzy
99_PARQUE BIBLIOTECA FERNANDO BOTERO,MEDELLIN,99,,PARQUE BIBLIOTECA FERNANDO BOTERO,False,False,18,6,10,0,31,147,691,1064,1009,PARQUE BIBLIOTECA FERNANDO BOTERO,PARQUE BIBLIOTECA FERNANDO BOTERO,CRA 131 No 62-15,6.2778592,-75.6367918,20CORREGIMIENTO SAN CRISTOBAL,exacto
99_SEC ESC JUAN NEPOMUCENO MORALES,MEDELLIN,99,,SEC ESC JUAN NEPOMUCENO MORALES,False,False,4,4,1,0,4,37,122,259,196,SEC ESC JUAN NEPOMUCENO MORALES,SEC ESC JUAN NEPOMUCENO MORALES,CALLE 62 No 127 6,6.2792238,-75.6320439,20CORREGIMIENTO SAN CRISTOBAL,exacto
