id_puesto,municipio,zona,num_puesto,nombre_puesto,votos_camilo,votos_sanchez,votos_nanclares,votos_carvalho_2022,votos_hoyos,votos_zuluaga,votos_creemos,votos_pacto,votos_cd_total,nombre_norm,PUESTO,DIRECCIÓN,lat,lon,COMUNA,tipo_match,pct_medellin_camilo,pct_zona_camilo,pct_medellin_carvalho,pct_zona_carvalho,pct_medellin_sanchez,pct_zona_sanchez,pct_medellin_nanclares,pct_zona_nanclares,pct_medellin_hoyos,pct_zona_hoyos,pct_medellin_creemos,pct_zona_creemos,pct_medellin_pacto,pct_zona_pacto,pct_medellin_cd,pct_zona_cd
1_1,MEDELLIN,1,1.0,SEC. ESC. LA ESPERANZA No 2,4,6,3,23,24,39,210,816,382,SEC. ESC. LA ESPERANZA NO 2,SEC. ESC. LA ESPERANZA No 2,KR 29 # 102 - 20,6.29116,-75.541166,01COMUNA 1 POPULAR,exacto,0.06,19.05,0.1,27.06,0.21,15.79,0.1,7.89,0.15,36.36,0.15,10.7,0.48,13.9,0.18,15.68
1_2,MEDELLIN,1,2.0,INST.EDUC. LA CANDELARIA,7,14,12,18,17,31,410,1150,586,INST.EDUC. LA CANDELARIA,INST.EDUC. LA CANDELARIA,CL 106 # 32-100,6.2935183,-75.5424117,01COMUNA 1 POPULAR,exacto,0.11,33.33,0.08,21.18,0.49,36.84,0.39,31.58,0.11,25.76,0.3,20.89,0.68,19.59,0.28,24.05
1_3,MEDELLIN,1,3.0,IE MARIA DE LOS ANGELES CANO MARQUEZ,3,5,2,12,6,20,340,904,365,IE MARIA DE LOS ANGELES CANO MARQUEZ,IE MARIA DE LOS ANGELES CANO MARQUEZ,CRA 36B No 102C -54,6.2923713,-75.5448303,01COMUNA 1 POPULAR,exacto,0.05,14.29,0.05,14.12,0.18,13.16,0.06,5.26,0.04,9.09,0.25,17.32,0.53,15.4,0.17,14.98
1_4,MEDELLIN,1,4.0,SEC. ESC. MEDELLIN,2,8,9,26,7,51,454,739,483,SEC. ESC. MEDELLIN,SEC. ESC. MEDELLIN,CL 96 # 36-45,6.2867589,-75.5465494,01COMUNA 1 POPULAR,exacto,0.03,9.52,0.11,30.59,0.28,21.05,0.29,23.68,0.05,10.61,0.33,23.13,0.44,12.59,0.23,19.82
1_5,MEDELLIN,1,5.0,I.E.FE Y ALEGRIA GRANIZAL,1,0,2,2,2,8,155,498,124,I.E.FE Y ALEGRIA GRANIZAL,I.E.FE Y ALEGRIA GRANIZAL,Cra 39A N° 104-23,6.292777,-75.5477324,01COMUNA 1 POPULAR,exacto,0.02,4.76,0.01,2.35,0.0,0.0,0.06,5.26,0.01,3.03,0.11,7.9,0.29,8.48,0.06,5.09
1_6,MEDELLIN,1,6.0,IE LA AVANZADA,1,1,0,1,0,18,34,173,68,IE LA AVANZADA,IE LA AVANZADA,CRA 27 No 106BB-65,6.2943218,-75.5390466,01COMUNA 1 POPULAR,exacto,0.02,4.76,0.0,1.18,0.04,2.63,0.0,0.0,0.0,0.0,0.02,1.73,0.1,2.95,0.03,2.79
1_7,MEDELLIN,1,7.0,SEC. ESC. CARPINELO AMAPOLITA,0,0,0,0,1,7,48,247,64,SEC. ESC. CARPINELO AMAPOLITA,SEC. ESC. CARPINELO AMAPOLITA,CALLE 97 # 23-12,6.2869144,-75.5384628,01COMUNA 1 POPULAR,exacto,0.0,0.0,0.0,0.0,0.0,0.0,0.0,0.0,0.01,1.52,0.03,2.45,0.15,4.21,0.03,2.63
1_8,MEDELLIN,1,8.0,IE ANTONIO DERKA,2,2,4,3,6,19,99,689,167,IE ANTONIO DERKA,IE ANTONIO DERKA,CRA 28 No 107-425,6.2968626,-75.5387284,01COMUNA 1 POPULAR,exacto,0.03,9.52,0.01,3.53,0.07,5.26,0.13,10.53,0.04,9.09,0.07,5.04,0.41,11.74,0.08,6.85
1_9,MEDELLIN,1,9.0,SEC. ESC. NUEVO HORIZONTE 2,1,2,6,0,3,18,213,655,198,SEC. ESC. NUEVO HORIZONTE 2,,,6.29729,-75.54678,,,0.02,4.76,0.0,0.0,0.07,5.26,0.19,15.79,0.02,4.55,0.15,10.85,0.39,11.16,0.09,8.12
10_1,MEDELLIN,10,1.0,I.E. MARIA MONTESSORI,25,12,9,82,34,120,1031,1517,1295,I.E. MARIA MONTESSORI,I.E. MARIA MONTESSORI,KR 69A # 92C-87,6.2867714,-75.5750512,05COMUNA 5 CASTILLA,exacto,0.38,22.94,0.34,23.5,0.42,19.05,0.29,18.37,0.22,21.38,0.75,27.02,0.9,24.22,0.61,26.41
10_2,MEDELLIN,10,2.0,ITM CASTILLA,34,22,12,120,39,81,1072,1926,1339,ITM CASTILLA,ITM CASTILLA,CR 65 No 98 A - 75,6.2938559,-75.5691395,05COMUNA 5 CASTILLA,exacto,0.52,31.19,0.5,34.38,0.77,34.92,0.39,24.49,0.25,24.53,0.78,28.1,1.14,30.75,0.63,27.3
10_3,MEDELLIN,10,3.0,I.E. DINAMARCA,18,10,4,41,17,38,376,820,486,I.E. DINAMARCA,I.E. DINAMARCA,Calle 91 No 65-119,6.2825209,-75.5727759,05COMUNA 5 CASTILLA,exacto,0.27,16.51,0.17,11.75,0.35,15.87,0.13,8.16,0.11,10.69,0.27,9.86,0.48,13.09,0.23,9.91
10_4,MEDELLIN,10,4.0,I.E. REPUBLICA DE URUGUAY,20,7,16,69,59,64,883,1212,1156,I.E. REPUBLICA DE URUGUAY,I.E. REPUBLICA DE URUGUAY,CL 91A No 70A-123,6.2840648,-75.5775506,05COMUNA 5 CASTILLA,exacto,0.3,18.35,0.29,19.77,0.25,11.11,0.52,32.65,0.38,37.11,0.64,23.15,0.72,19.35,0.54,23.57
10_5,MEDELLIN,10,5.0,IE FELIX DE BEDOUT MORENO,12,8,6,37,9,26,376,589,497,IE FELIX DE BEDOUT MORENO,IE FELIX DE BEDOUT MORENO,CLL 108 No 70-39,6.3062053,-75.5695653,05COMUNA 5 CASTILLA,exacto,0.18,11.01,0.15,10.6,0.28,12.7,0.19,12.24,0.06,5.66,0.27,9.86,0.35,9.4,0.23,10.13
10_6,MEDELLIN,10,6.0,TERMINAL DE TRANSPORTES DEL NORTE,0,4,2,0,1,12,77,200,131,TERMINAL DE TRANSPORTES DEL NORTE,TERMINAL DE TRANSPORTES DEL NORTE,CR 64 C No 78  580,6.2793147,-75.5708468,05COMUNA 5 CASTILLA,exacto,0.0,0.0,0.0,0.0,0.14,6.35,0.06,4.08,0.01,0.63,0.06,2.02,0.12,3.19,0.06,2.67
11_1,MEDELLIN,11,1.0,I.E. CIUDADELA LAS AMERICAS,10,10,5,54,28,40,784,1156,944,I.E. CIUDADELA LAS AMERICAS,I.E. CIUDADELA LAS AMERICAS,CL 111 # 79-77,6.3085993,-75.5753986,06COMUNA 6 DOCE DE OCTUBRE,exacto,0.15,22.73,0.23,24.22,0.35,22.22,0.16,17.86,0.18,26.42,0.57,23.07,0.68,21.08,0.44,24.15
11_2,MEDELLIN,11,2.0,I.E. PROGRESAR,7,3,7,25,9,55,380,606,511,I.E. PROGRESAR,I.E. PROGRESAR,KR 83A # 106 D 5,6.3085984,-75.5805409,06COMUNA 6 DOCE DE OCTUBRE,exacto,0.11,15.91,0.1,11.21,0.11,6.67,0.23,25.0,0.06,8.49,0.28,11.18,0.36,11.05,0.24,13.07
11_3,MEDELLIN,11,3.0,SEC. ESC. LEON DE GREIFF,4,4,3,33,16,28,404,593,519,SEC. ESC. LEON DE GREIFF,SEC. ESC. LEON DE GREIFF,CL 101CC # 82E-72,6.3022944,-75.5808114,06COMUNA 6 DOCE DE OCTUBRE,exacto,0.06,9.09,0.14,14.8,0.14,8.89,0.1,10.71,0.1,15.09,0.29,11.89,0.35,10.81,0.24,13.28
11_4,MEDELLIN,11,4.0,I.E. DOCE DE OCTUBRE,4,8,4,30,16,49,673,553,693,I.E. DOCE DE OCTUBRE,I.E. DOCE DE OCTUBRE,KR 77B # 103-05,6.3030409,-75.5769557,06COMUNA 6 DOCE DE OCTUBRE,exacto,0.06,9.09,0.13,13.45,0.28,17.78,0.13,14.29,0.1,15.09,0.49,19.8,0.33,10.08,0.33,17.73
11_5,MEDELLIN,11,5.0,I.E. JOSE MARIA ESPINOSA PRIETO - CASD,0,3,2,11,4,9,183,408,202,I.E. JOSE MARIA ESPINOSA PRIETO - CASD,CASD JOSE MARIA ESPINOSA PRIETO,CLL 99 No 72-192,6.2970097,-75.5755596,06COMUNA 6 DOCE DE OCTUBRE,fuzzy,0.0,0.0,0.05,4.93,0.11,6.67,0.06,7.14,0.03,3.77,0.13,5.38,0.24,7.44,0.09,5.17
11_6,MEDELLIN,11,6.0,I.E. EL TRIUNFO SANTA TERESA,1,1,1,8,11,23,149,469,232,I.E. EL TRIUNFO SANTA TERESA,I.E. EL TRIUNFO SANTA TERESA,CALLE 104D # 82GG - 21,6.3065152,-75.5811794,06COMUNA 6 DOCE DE OCTUBRE,exacto,0.02,2.27,0.03,3.59,0.04,2.22,0.03,3.57,0.07,10.38,0.11,4.38,0.28,8.55,0.11,5.94
11_7,MEDELLIN,11,7.0,I.E. SANTA JUANA DE LESTONNAC,14,13,4,52,11,25,572,1053,482,I.E. SANTA JUANA DE LESTONNAC,IE SANTA JUANA DE LESTONACC,CRA 76A No 103C-43,6.3030437,-755.755,06COMUNA 6 DOCE DE OCTUBRE,fuzzy,0.21,31.82,0.22,23.32,0.46,28.89,0.13,14.29,0.07,10.38,0.42,16.83,0.62,19.2,0.23,12.33
11_8,MEDELLIN,11,8.0,I.E. JESUS MARIA VALLE,4,3,2,10,11,23,254,646,326,I.E. JESUS MARIA VALLE,IE JESUS MARIA VALLE JARAMILLO,CLL 101 No 83-21,6.3004809,-75.5822333,06COMUNA 6 DOCE DE OCTUBRE,fuzzy,0.06,9.09,0.04,4.48,0.11,6.67,0.06,7.14,0.07,10.38,0.18,7.47,0.38,11.78,0.15,8.34
12_1,MEDELLIN,12,1.0,I.E.MAESTRO FERNANDO BOTERO,10,6,12,90,28,74,854,995,1060,I.E.MAESTRO FERNANDO BOTERO,I.E.MAESTRO FERNANDO BOTERO,CL 104 # 72A-80,6.3015698,-75.5719519,06COMUNA 6 DOCE DE OCTUBRE,exacto,0.15,12.99,0.38,29.03,0.21,18.75,0.39,23.08,0.18,19.72,0.62,20.65,0.59,17.06,0.5,21.36
12_2,MEDELLIN,12,2.0,I.E.ALFREDO COCK ARANGO,12,3,10,44,34,68,733,987,858,I.E.ALFREDO COCK ARANGO,I.E.ALFREDO COCK ARANGO,KR 72 # 99-55,6.2962348,-75.5737998,06COMUNA 6 DOCE DE OCTUBRE,exacto,0.18,15.58,0.18,14.19,0.11,9.38,0.32,19.23,0.22,23.94,0.53,17.72,0.58,16.92,0.4,17.29
12_3,MEDELLIN,12,3.0,SEC.ESC.SAN MARTIN DE PORRES,9,4,9,26,12,63,513,641,615,SEC.ESC.SAN MARTIN DE PORRES,SEC.ESC.SAN MARTIN DE PORRES,KR 75A # 97-135,6.2958628,-75.5786048,06COMUNA 6 DOCE DE OCTUBRE,exacto,0.14,11.69,0.11,8.39,0.14,12.5,0.29,17.31,0.08,8.45,0.37,12.4,0.38,10.99,0.29,12.39
12_4,MEDELLIN,12,4.0,I.E. KENNEDY,11,6,12,44,33,49,763,815,990,I.E. KENNEDY,I.E. KENNEDY,CRA 76A  No 92-200,6.2912824,-75.5815187,06COMUNA 6 DOCE DE OCTUBRE,exacto,0.17,14.29,0.18,14.19,0.21,18.75,0.39,23.08,0.21,23.24,0.55,18.45,0.48,13.97,0.46,19.95
12_5,MEDELLIN,12,5.0,SEC.CONCENTRACION EDUC.KENNEDY,12,3,2,47,17,34,544,869,542,SEC.CONCENTRACION EDUC.KENNEDY,SEC.CONCENTRACION EDUC.KENNEDY,CARRERA 76A # 92-131,6.2907455,-75.5816447,06COMUNA 6 DOCE DE OCTUBRE,exacto,0.18,15.58,0.2,15.16,0.11,9.38,0.06,3.85,0.11,11.97,0.4,13.15,0.51,14.9,0.25,10.92
12_6,MEDELLIN,12,6.0,I.E. JORGE ELIECER GAITAN,5,2,1,15,6,7,218,385,314,I.E. JORGE ELIECER GAITAN,I.E.JORGE ELIECER GAITAN(PPAL),CALLE 92 # 83-41,6.2899142,-75.5852278,06COMUNA 6 DOCE DE OCTUBRE,fuzzy,0.08,6.49,0.06,4.84,0.07,6.25,0.03,1.92,0.04,4.23,0.16,5.27,0.23,6.6,0.15,6.33
12_7,MEDELLIN,12,7.0,SEC. ESC. EL PEDREGAL,11,7,4,24,4,17,266,644,326,SEC. ESC. EL PEDREGAL,SEC. ESC. PEDREGAL,CLL 104E No 74-109,6.3034096,-75.5730437,06COMUNA 6 DOCE DE OCTUBRE,fuzzy,0.17,14.29,0.1,7.74,0.25,21.88,0.13,7.69,0.03,2.82,0.19,6.43,0.38,11.04,0.15,6.57
12_8,MEDELLIN,12,8.0,I.E.LA ESPERANZA,7,1,2,20,8,32,242,476,247,I.E.LA ESPERANZA,I.E.LA ESPERANZA,CRA 73B No 96-09,6.2931056,-75.5772736,06COMUNA 6 DOCE DE OCTUBRE,exacto,0.11,9.09,0.08,6.45,0.04,3.12,0.06,3.85,0.05,5.63,0.18,5.85,0.28,8.16,0.12,4.98
12_9,MEDELLIN,12,9.0,SENA PEDREGAL,0,0,0,0,0,2,3,22,11,SENA PEDREGAL,,,6.302009,-75.56857,,,0.0,0.0,0.0,0.0,0.0,0.0,0.0,0.0,0.0,0.0,0.0,0.07,0.01,0.38,0.01,0.22
13_1,MEDELLIN,13,1.0,I.E. SAN VICENTE DE PAUL,34,14,15,175,46,65,1003,890,1253,I.E. SAN VICENTE DE PAUL,I.E. SAN VICENTE DE PAUL,KR 71A # 79D-01,6.278927,-75.5790277,07COMUNA 7 ROBLEDO,exacto,0.52,22.97,0.73,30.54,0.49,14.89,0.49,23.08,0.3,23.59,0.73,19.43,0.53,12.31,0.59,20.7
13_2,MEDELLIN,13,2.0,SEC.ESC. EL DIAMANTE,15,14,14,52,16,67,842,795,978,SEC.ESC. EL DIAMANTE,SEC.ESC. EL DIAMANTE,CL 79A # 86-09,6.2853308,-75.5871781,07COMUNA 7 ROBLEDO,exacto,0.23,10.14,0.22,9.08,0.49,14.89,0.45,21.54,0.1,8.21,0.61,16.31,0.47,10.99,0.46,16.15
13_3,MEDELLIN,13,3.0,I.E.EL DIAMANTE (SEDE BTO),23,18,6,84,19,42,587,996,644,I.E.EL DIAMANTE (SEDE BTO),I.E.EL DIAMANTE (SEDE BTO),CARRERA 87 No. 79-05,6.2860819,-75.5881659,07COMUNA 7 ROBLEDO,exacto,0.35,15.54,0.35,14.66,0.63,19.15,0.19,9.23,0.12,9.74,0.43,11.37,0.59,13.77,0.3,10.64
13_4,MEDELLIN,13,4.0,I.E. VILLA DE LA CANDELARIA,6,11,12,66,37,52,747,1039,918,I.E. VILLA DE LA CANDELARIA,,,6.284927,-75.593699,,,0.09,4.05,0.28,11.52,0.39,11.7,0.39,18.46,0.24,18.97,0.54,14.47,0.61,14.37,0.43,15.16
13_5,MEDELLIN,13,5.0,I.E.FE Y ALEGRIA SAN JOSE,5,2,0,12,15,16,358,794,354,I.E.FE Y ALEGRIA SAN JOSE,I.E.FE Y ALEGRIA SAN JOSE,CALLE 86 # 92-60,6.2912166,-75.5900082,07COMUNA 7 ROBLEDO,exacto,0.08,3.38,0.05,2.09,0.07,2.13,0.0,0.0,0.1,7.69,0.26,6.93,0.47,10.98,0.17,5.85
13_6,MEDELLIN,13,6.0,TECNOLOGICO DE ANTIOQUIA,56,31,14,148,41,59,967,1316,1153,TECNOLOGICO DE ANTIOQUIA,TECNOLOGICO DE ANTIOQUIA,CALLE 78B # 72A-220,6.2796063,-75.5834527,07COMUNA 7 ROBLEDO,exacto,0.85,37.84,0.62,25.83,1.09,32.98,0.45,21.54,0.26,21.03,0.7,18.73,0.78,18.2,0.54,19.05
13_7,MEDELLIN,13,7.0,IE JESUS REY,9,3,3,31,14,30,448,797,504,IE JESUS REY,IE JESUS REY,CRA 88 No 77A-11,6.2834112,-75.5919937,07COMUNA 7 ROBLEDO,exacto,0.14,6.08,0.13,5.41,0.11,3.19,0.1,4.62,0.09,7.18,0.33,8.68,0.47,11.02,0.24,8.33
13_8,MEDELLIN,13,8.0,IE AURES,0,1,1,5,7,19,211,604,250,IE AURES,IE AURES,CRA 96A No 77E-15,6.2902077,-75.5965264,07COMUNA 7 ROBLEDO,exacto,0.0,0.0,0.02,0.87,0.04,1.06,0.03,1.54,0.05,3.59,0.15,4.09,0.36,8.35,0.12,4.13
14_1,MEDELLIN,14,1.0,IE MON GERARDO VALENCIA CANO,18,20,19,85,27,30,485,602,666,IE MON GERARDO VALENCIA CANO,IE MON GERARDO VALENCIA CANO,CL 65 # 74 B - 273,6.2691099,-75.5877256,07COMUNA 7 ROBLEDO,exacto,0.27,13.95,0.35,17.38,0.7,19.05,0.62,24.05,0.17,15.52,0.35,12.81,0.36,9.92,0.31,14.06
14_2,MEDELLIN,14,2.0,I.E. JORGE ROBLEDO,18,12,17,88,37,65,816,990,1235,I.E. JORGE ROBLEDO,I.E. JORGE ROBLEDO,CL 65 # 87-74,6.2768071,-75.5974006,07COMUNA 7 ROBLEDO,exacto,0.27,13.95,0.37,18.0,0.42,11.43,0.55,21.52,0.24,21.26,0.59,21.55,0.58,16.31,0.58,26.07
14_3,MEDELLIN,14,3.0,I.E.MARISCAL ROBLEDO,14,4,8,100,19,35,425,675,502,I.E.MARISCAL ROBLEDO,I.E.MARISCAL ROBLEDO,CALLE 65 # 84-87,6.2754017,-75.5958898,07COMUNA 7 ROBLEDO,exacto,0.21,10.85,0.42,20.45,0.14,3.81,0.26,10.13,0.12,10.92,0.31,11.23,0.4,11.12,0.24,10.6
14_4,MEDELLIN,14,4.0,SEC.ESC. SANTA MARGARITA,4,2,10,9,15,17,409,782,401,SEC.ESC. SANTA MARGARITA,SEC.ESC. SANTA MARGARITA,KR 105B # 62-68,6.2765446,-75.6159666,07COMUNA 7 ROBLEDO,exacto,0.06,3.1,0.04,1.84,0.07,1.9,0.32,12.66,0.1,8.62,0.3,10.8,0.46,12.88,0.19,8.47
14_5,MEDELLIN,14,5.0,INSTITUTO FERRINI - SEDE ROBLEDO,38,26,9,104,37,60,985,1567,1109,INSTITUTO FERRINI - SEDE ROBLEDO,,,6.277956,-75.592284,,,0.58,29.46,0.43,21.27,0.91,24.76,0.29,11.39,0.24,21.26,0.72,26.02,0.93,25.82,0.52,23.41
14_6,MEDELLIN,14,6.0,I.E.CAMILO MORA CARRASQUILLA,6,7,3,19,9,12,209,411,244,I.E.CAMILO MORA CARRASQUILLA,I.E.CAMILO MORA CARRASQUILLA,CALLE 62D # 94B-74,6.2782545,-75.6062301,07COMUNA 7 ROBLEDO,exacto,0.09,4.65,0.08,3.89,0.25,6.67,0.1,3.8,0.06,5.17,0.15,5.52,0.24,6.77,0.11,5.15
14_7,MEDELLIN,14,7.0,COL MAYOR DE ANTIOQUIA,30,32,10,84,23,31,399,839,491,COL MAYOR DE ANTIOQUIA,COL MAYOR DE ANTIOQUIA,CRA 78 No 65-46,6.2732352,-75.5919642,07COMUNA 7 ROBLEDO,exacto,0.46,23.26,0.35,17.18,1.13,30.48,0.32,12.66,0.15,13.22,0.29,10.54,0.5,13.82,0.23,10.37
14_8,MEDELLIN,14,8.0,IE BARRIO OLAYA HERRERA,1,2,3,0,7,4,58,204,89,IE BARRIO OLAYA HERRERA,IE BARRIO OLAYA HERRERA,CRA 101C No 58-44,6.3009858,-75.5786012,07COMUNA 7 ROBLEDO,exacto,0.02,0.78,0.0,0.0,0.07,1.9,0.1,3.8,0.05,4.02,0.04,1.53,0.12,3.36,0.04,1.88
15_1,MEDELLIN,15,1.0,I.E. JUAN DE DIOS CARVAJAL,29,11,17,122,22,74,937,914,989,I.E. JUAN DE DIOS CARVAJAL,I.E. JUAN DE DIOS CARVAJAL,CL 65AA # 36-39,6.2557426,-75.5510348,08COMUNA 8 VILLA HERMOSA,exacto,0.44,31.87,0.51,35.06,0.39,18.33,0.55,31.48,0.14,19.64,0.68,24.42,0.54,15.14,0.46,22.18
15_2,MEDELLIN,15,2.0,I.E. JUAN DE LA CRUZ POSADA,12,8,12,71,19,38,423,436,646,I.E. JUAN DE LA CRUZ POSADA,I.E. JUAN DE LA CRUZ POSADA,CL 62 # 39-22,6.253779,-75.5545627,08COMUNA 8 VILLA HERMOSA,exacto,0.18,13.19,0.3,20.4,0.28,13.33,0.39,22.22,0.12,16.96,0.31,11.02,0.26,7.22,0.3,14.49
15_3,MEDELLIN,15,3.0,I.E.JOSE CELESTINO MUTIS,11,8,3,27,16,27,439,631,589,I.E.JOSE CELESTINO MUTIS,I.E.JOSE CELESTINO MUTIS,CALLE 65 No. 45-15,6.2588911,-75.5569624,08COMUNA 8 VILLA HERMOSA,exacto,0.17,12.09,0.11,7.76,0.28,13.33,0.1,5.56,0.1,14.29,0.32,11.44,0.37,10.45,0.28,13.21
15_4,MEDELLIN,15,4.0,I.T.M. (CAMPUS FRATERNIDAD),6,1,1,23,3,11,186,417,218,I.T.M. (CAMPUS FRATERNIDAD),,,6.245338,-75.550949,,,0.09,6.59,0.1,6.61,0.04,1.67,0.03,1.85,0.02,2.68,0.14,4.85,0.25,6.91,0.1,4.89
15_5,MEDELLIN,15,5.0,SEC.ESC.JULIA AGUDELO,17,17,17,74,37,101,1155,1806,1348,SEC.ESC.JULIA AGUDELO,SEC.ESC.JULIA AGUDELO,CL 58 # 28-58,6.2499357,-75.5489633,08COMUNA 8 VILLA HERMOSA,exacto,0.26,18.68,0.31,21.26,0.6,28.33,0.55,31.48,0.24,33.04,0.84,30.1,1.07,29.92,0.63,30.23
15_6,MEDELLIN,15,6.0,SEC.ESC.NIÑO JESUS DE PRAGA,8,8,3,15,8,18,271,528,217,SEC.ESC.NIÃ‘O JESUS DE PRAGA,SEC.ESC.NIÑO JESUS DE PRAGA,CALLE 57C No. 23-200,6.2486595,-75.5457866,08COMUNA 8 VILLA HERMOSA,fuzzy,0.12,8.79,0.06,4.31,0.28,13.33,0.1,5.56,0.05,7.14,0.2,7.06,0.31,8.75,0.1,4.87
15_7,MEDELLIN,15,7.0,I.E.SOL DE ORIENTE,2,0,0,2,2,16,78,445,125,I.E.SOL DE ORIENTE,I.E.SOL DE ORIENTE,CARRERA 23 No. 56EH - 200,6.2449345,-75.5405979,08COMUNA 8 VILLA HERMOSA,exacto,0.03,2.2,0.01,0.57,0.0,0.0,0.0,0.0,0.01,1.79,0.06,2.03,0.26,7.37,0.06,2.8
15_8,MEDELLIN,15,8.0,I.E. LUIS CARLOS GALAN SARMIENTO,2,4,1,10,2,12,194,576,184,I.E. LUIS CARLOS GALAN SARMIENTO,IE LUIS CARLOS GALAN SARMIENTO PPAL,CRA 24B No 57EE-45,6.2503967,-75.5469371,08COMUNA 8 VILLA HERMOSA,fuzzy,0.03,2.2,0.04,2.87,0.14,6.67,0.03,1.85,0.01,1.79,0.14,5.06,0.34,9.54,0.09,4.13
15_9,MEDELLIN,15,9.0,IE ESC NORMAL SUPERIOR DE MEDELLIN,4,3,0,4,3,11,154,283,143,IE ESC NORMAL SUPERIOR DE MEDELLIN,IE ESC NORMAL SUPERIOR DE MEDELLIN,CRA 34 No 65 - 02,6.2544209,-75.5487597,08COMUNA 8 VILLA HERMOSA,exacto,0.06,4.4,0.02,1.15,0.11,5.0,0.0,0.0,0.02,2.68,0.11,4.01,0.17,4.69,0.07,3.21
16_1,MEDELLIN,16,1.0,SEC. ESC. VILLA TURBAY,0,1,4,3,4,10,114,386,198,SEC. ESC. VILLA TURBAY,I.E. VILLA TURBAY,KR 2 # 55F-17,6.2357365,-75.53021,08COMUNA 8 VILLA HERMOSA,fuzzy,0.0,0.0,0.01,4.69,0.04,4.76,0.13,19.05,0.03,7.02,0.08,7.01,0.23,12.69,0.09,11.28
16_2,MEDELLIN,16,2.0,SECCION ESCUELA HOGAR ANTIOQUIA,0,1,2,11,14,16,120,231,178,SECCION ESCUELA HOGAR ANTIOQUIA,SECCION ESCUELA HOGAR ANTIOQUIA,CALLE 52A No 12 34,6.2342969,-75.5389514,08COMUNA 8 VILLA HERMOSA,exacto,0.0,0.0,0.05,17.19,0.04,4.76,0.06,9.52,0.09,24.56,0.09,7.38,0.14,7.59,0.08,10.14
16_3,MEDELLIN,16,3.0,SEC ESC SOR MARIA LUISA COURBIN,3,8,6,22,10,45,539,665,490,SEC ESC SOR MARIA LUISA COURBIN,SEC ESC SOR MARIA LUISA COURBIN,KR 12 # 52-44,6.2340857,-75.5384505,08COMUNA 8 VILLA HERMOSA,exacto,0.05,33.33,0.09,34.38,0.28,38.1,0.19,28.57,0.06,17.54,0.39,33.13,0.39,21.86,0.23,27.92
16_4,MEDELLIN,16,4.0,I.E. SAN FRANCISCO DE ASIS,0,4,4,10,9,24,331,805,374,I.E. SAN FRANCISCO DE ASIS,I.E. SAN FRANCISCO DE ASIS,CL 56 # 16-18,6.2383791,-75.5397024,08COMUNA 8 VILLA HERMOSA,exacto,0.0,0.0,0.04,15.62,0.14,19.05,0.13,19.05,0.06,15.79,0.24,20.34,0.48,26.46,0.18,21.31
16_5,MEDELLIN,16,5.0,IE FELIX HENAO BOTERO,6,7,5,18,19,27,494,852,483,IE FELIX HENAO BOTERO,IE FELIX HENAO BOTERO,CLL 52 No 23-51,6.2408062,-75.5466873,08COMUNA 8 VILLA HERMOSA,exacto,0.09,66.67,0.08,28.12,0.25,33.33,0.16,23.81,0.12,33.33,0.36,30.36,0.5,28.01,0.23,27.52
16_6,MEDELLIN,16,6.0,IE GABRIEL GARCIA MARQUEZ,0,0,0,0,1,5,29,103,32,IE GABRIEL GARCIA MARQUEZ,IE GABRIEL GARCIA MARQUEZ,CRA 8A No. 57A - 93,6.2368344,-75.5336684,08COMUNA 8 VILLA HERMOSA,exacto,0.0,0.0,0.0,0.0,0.0,0.0,0.0,0.0,0.01,1.75,0.02,1.78,0.06,3.39,0.02,1.82
17_1,MEDELLIN,17,1.0,I.E.GUADALUPANO LA SALLE,24,12,11,87,33,71,829,1164,1064,I.E.GUADALUPANO LA SALLE,I.E.GUADALUPANO LA SALLE,CALLE 49 No. 17 B 21,6.236225,-75.5444385,09COMUNA 9 BUENOS AIRES,exacto,0.36,16.33,0.36,15.62,0.42,12.24,0.36,15.07,0.21,15.0,0.6,15.49,0.69,16.16,0.5,17.33
17_2,MEDELLIN,17,2.0,IE MERCEDITAS GOMEZ MARTINEZ,26,12,7,103,40,51,987,1183,1023,IE MERCEDITAS GOMEZ MARTINEZ,IE MERCEDITAS GOMEZ MARTINEZ,CL 45 # 18-03,6.23351,-75.5468405,09COMUNA 9 BUENOS AIRES,exacto,0.39,17.69,0.43,18.49,0.42,12.24,0.23,9.59,0.26,18.18,0.72,18.45,0.7,16.42,0.48,16.67
17_3,MEDELLIN,17,3.0,I.E. MANUEL JOSÉ CAYZEDO,22,20,12,66,25,39,582,986,700,I.E. MANUEL JOSÃ‰ CAYZEDO,MANUEL JOSÈ CAYZEDO,CLl 50 No 29-82,6.2414416,-75.5520487,09COMUNA 9 BUENOS AIRES,fuzzy,0.33,14.97,0.28,11.85,0.7,20.41,0.39,16.44,0.16,11.36,0.42,10.88,0.58,13.69,0.33,11.4
17_4,MEDELLIN,17,4.0,I.E. LA MILAGROSA,44,16,21,237,74,115,1660,1706,1940,I.E. LA MILAGROSA,I.E. LA MILAGROSA,KR 29 # 41-14,6.2351204,-75.5547173,09COMUNA 9 BUENOS AIRES,exacto,0.67,29.93,0.99,42.55,0.56,16.33,0.68,28.77,0.48,33.64,1.21,31.02,1.01,23.68,0.91,31.61
17_5,MEDELLIN,17,5.0,COLEGIO EUCARISTICO,16,15,11,43,28,44,615,822,668,COLEGIO EUCARISTICO,COLEGIO EUCARISTICO,CRA 28 No 42-62,6.2353641,-75.5535999,09COMUNA 9 BUENOS AIRES,exacto,0.24,10.88,0.18,7.72,0.53,15.31,0.36,15.07,0.18,12.73,0.45,11.49,0.49,11.41,0.31,10.88
17_6,MEDELLIN,17,6.0,SENA - SEDE BUENOS AIRES,5,9,4,8,6,13,150,386,169,SENA - SEDE BUENOS AIRES,SENA SD BUENOS AIRES,CLL 48 No 28-00,6.239476,-75.5523373,09COMUNA 9 BUENOS AIRES,fuzzy,0.08,3.4,0.03,1.44,0.32,9.18,0.13,5.48,0.04,2.73,0.11,2.8,0.23,5.36,0.08,2.75
17_7,MEDELLIN,17,7.0,IE ARZOBISPO TULIO BOTERO SALAZAR,3,5,2,3,3,15,98,278,128,IE ARZOBISPO TULIO BOTERO SALAZAR,IE ARZOBISPO TULIO BOTERO SALAZAR,CLL 49A No 03A - 006,6.2300656,-75.5326104,09COMUNA 9 BUENOS AIRES,exacto,0.05,2.04,0.01,0.54,0.18,5.1,0.06,2.74,0.02,1.36,0.07,1.83,0.16,3.86,0.06,2.09
17_8,MEDELLIN,17,8.0,IE MADRE LAURA,4,6,1,10,7,14,220,331,250,IE MADRE LAURA,IE MADRE LAURA,CLL 45 No 22A - 81,6.2354493,-75.5508485,09COMUNA 9 BUENOS AIRES,exacto,0.06,2.72,0.04,1.8,0.21,6.12,0.03,1.37,0.05,3.18,0.16,4.11,0.2,4.6,0.12,4.07
17_9,MEDELLIN,17,9.0,SECCION ESCUELA ALEJANDRO ECHAVARRIA,3,3,4,0,4,5,210,347,196,SECCION ESCUELA ALEJANDRO ECHAVARRIA,SECCION ESCUELA ALEJANDRO ECHAVARRIA,CARRERA 16 NO 49B 8,6.2349272,-75.5423472,09COMUNA 9 BUENOS AIRES,exacto,0.05,2.04,0.0,0.0,0.11,3.06,0.13,5.48,0.03,1.82,0.15,3.92,0.2,4.82,0.09,3.19
18_1,MEDELLIN,18,1.0,I.E. GABRIELA GOMEZ CARVAJAL,20,4,11,59,36,62,631,1020,795,I.E. GABRIELA GOMEZ CARVAJAL,IE LORETO GABRIELA GOMEZ CARVAJAL,KR 32 # 34-06,6.2312734,-75.5597163,09COMUNA 9 BUENOS AIRES,fuzzy,0.3,18.02,0.25,12.88,0.14,7.41,0.36,18.03,0.23,17.31,0.46,16.53,0.6,22.84,0.37,16.46
18_2,MEDELLIN,18,2.0,IE FEDERICO OZANAM,27,16,17,141,54,107,1148,1099,1392,IE FEDERICO OZANAM,IE FEDERICO OZANAM,CRA.36 No 45 - 08,6.2404694,-75.5582027,09COMUNA 9 BUENOS AIRES,exacto,0.41,24.32,0.59,30.79,0.56,29.63,0.55,27.87,0.35,25.96,0.83,30.08,0.65,24.61,0.65,28.83
18_3,MEDELLIN,18,3.0,ESC NORMAL SUPERIOR ANTIOQUEÑA,29,17,14,119,64,116,816,933,1195,ESC NORMAL SUPERIOR ANTIOQUEÃ‘A,ESC NORMAL SUPERIOR ANTIOQUEÑA,KR 36A # 48-55,6.2424929,-75.5584713,09COMUNA 9 BUENOS AIRES,fuzzy,0.44,26.13,0.5,25.98,0.6,31.48,0.45,22.95,0.41,30.77,0.59,21.38,0.55,20.89,0.56,24.75
18_4,MEDELLIN,18,4.0,SEC. ESC. JOSE DE SAN MARTIN,31,15,18,133,44,75,1101,1190,1321,SEC. ESC. JOSE DE SAN MARTIN,SEC. ESC. JOSE DE SAN MARTIN,CL 39 # 38- 21,6.2369565,-75.5626341,09COMUNA 9 BUENOS AIRES,exacto,0.47,27.93,0.55,29.04,0.53,27.78,0.58,29.51,0.28,21.15,0.8,28.84,0.7,26.65,0.62,27.36
18_5,MEDELLIN,18,5.0,SEC. ESC. JUAN CANCIO RESTREPO,4,2,1,6,10,6,121,224,126,SEC. ESC. JUAN CANCIO RESTREPO,SEC. ESC. JUAN CANCIO RESTREPO,CLL 45 No 31-63,6.2384978,-75.5556738,09COMUNA 9 BUENOS AIRES,exacto,0.06,3.6,0.03,1.31,0.07,3.7,0.03,1.64,0.06,4.81,0.09,3.17,0.13,5.02,0.06,2.61
19_1,MEDELLIN,19,1.0,I.E. TULIO OSPINA,23,12,14,101,46,57,592,944,1151,I.E. TULIO OSPINA,I.E. TULIO OSPINA,KR 51 D # 60-38,6.2591134,-75.5662527,10COMUNA 10 LA CANDELARIA,exacto,0.35,9.87,0.42,15.88,0.42,10.26,0.45,16.47,0.3,16.43,0.43,13.58,0.56,13.74,0.54,16.23
19_2,MEDELLIN,19,2.0,SEC. COL. AGUSTIN NIETO CABALLERO,8,3,5,45,22,22,246,346,423,SEC. COL. AGUSTIN NIETO CABALLERO,SEC ESC AGUSTIN NIETO CABALLERO,KR 40 # 59A-21,6.2523822,-75.5571236,10COMUNA 10 LA CANDELARIA,fuzzy,0.12,3.43,0.19,7.08,0.11,2.56,0.16,5.88,0.14,7.86,0.18,5.64,0.2,5.04,0.2,5.96
19_3,MEDELLIN,19,3.0,COLEGIO SALESIANO EL SUFRAGIO,72,17,13,197,86,111,1225,1440,1893,COLEGIO SALESIANO EL SUFRAGIO,COLEGIO SALESIANO EL SUFRAGIO,KR 39 # 54-31,6.248296,-75.5580802,10COMUNA 10 LA CANDELARIA,exacto,1.09,30.9,0.82,30.97,0.6,14.53,0.42,15.29,0.55,30.71,0.89,28.1,0.85,20.96,0.89,26.69
19_4,MEDELLIN,19,4.0,I.E. CENTRO FORMATIVO DE ANTIOQUIA -CEFA,53,38,23,159,62,174,1101,1828,1934,I.E. CENTRO FORMATIVO DE ANTIOQUIA -CEFA,I.E. CEFA,CL 50 # 41-55,6.2464754,-75.5619144,10COMUNA 10 LA CANDELARIA,manual,0.8,22.75,0.66,25.0,1.34,32.48,0.75,27.06,0.4,22.14,0.8,25.26,1.08,26.61,0.91,27.27
19_5,MEDELLIN,19,5.0,I.E. HECTOR ABAD GOMEZ,49,19,16,98,40,74,787,1365,1118,I.E. HECTOR ABAD GOMEZ,I.E. HECTOR ABAD GOMEZ,CL 50 #39-65,6.2455254,-75.5599889,10COMUNA 10 LA CANDELARIA,exacto,0.74,21.03,0.41,15.41,0.67,16.24,0.52,18.82,0.26,14.29,0.57,18.05,0.81,19.87,0.52,15.76
19_6,MEDELLIN,19,6.0,I.E. JAVIERA LONDOÑO,21,21,7,26,16,20,227,526,352,I.E. JAVIERA LONDOÃ‘O,I.E. JAVIERA LONDOÑO,CL 71 # 51D-26,6.2681464,-75.5649129,04COMUNA 4 ARANJUEZ,fuzzy,0.32,9.01,0.11,4.09,0.74,17.95,0.23,8.24,0.1,5.71,0.16,5.21,0.31,7.66,0.17,4.96
19_7,MEDELLIN,19,7.0,I.T.M. (PRADO CENTRO),7,7,7,10,8,13,181,421,222,I.T.M. (PRADO CENTRO),I.T.M. (PRADO CENTRO),CRA 51 No 58-69,6.2575764,-75.5662123,10COMUNA 10 LA CANDELARIA,exacto,0.11,3.0,0.04,1.57,0.25,5.98,0.23,8.24,0.05,2.86,0.13,4.15,0.25,6.13,0.1,3.13
2_1,MEDELLIN,2,1.0,I.E. NUEVO HORIZONTE - PAULO VI,3,4,5,35,13,33,297,538,431,I.E. NUEVO HORIZONTE - PAULO VI,IE NUEVO HORIZONTES No 2,CARRERA 37 No 107AA 21,6.2947441,-75.5460378,01COMUNA 1 POPULAR,fuzzy,0.05,15.79,0.15,30.7,0.14,18.18,0.16,18.52,0.08,23.64,0.22,20.2,0.32,17.02,0.2,23.39
2_2,MEDELLIN,2,2.0,SEC. ESC. DIVINA PROVIDENCIA,5,0,6,26,19,39,332,845,403,SEC. ESC. DIVINA PROVIDENCIA,SEC. ESC. DIVINA PROVIDENCIA,CL 108 NO 43B - 17,6.2973347,-75.5492118,01COMUNA 1 POPULAR,exacto,0.08,26.32,0.11,22.81,0.0,0.0,0.19,22.22,0.12,34.55,0.24,22.59,0.5,26.73,0.19,21.87
2_3,MEDELLIN,2,3.0,SEC.ESC.AGRIPINA MONTES DEL VALLE,4,6,6,14,16,55,380,497,487,SEC.ESC.AGRIPINA MONTES DEL VALLE,SEC.ESC.AGRIPINA MONTES DEL VALLE,CALLE 95 #42 B 44,6.2863543,-75.5503877,01COMUNA 1 POPULAR,exacto,0.06,21.05,0.06,12.28,0.21,27.27,0.19,22.22,0.1,29.09,0.28,25.85,0.29,15.72,0.23,26.42
2_4,MEDELLIN,2,4.0,I.E.FEDERICO CARRASQUILLA,4,5,4,4,4,13,160,568,179,I.E.FEDERICO CARRASQUILLA,I.E.FEDERICO CARRASQUILLA,Cra 45 # 108-110,6.2985923,-75.5494982,01COMUNA 1 POPULAR,exacto,0.06,21.05,0.02,3.51,0.18,22.73,0.13,14.81,0.03,7.27,0.12,10.88,0.34,17.97,0.08,9.71
2_5,MEDELLIN,2,5.0,I.E.GUADALUPE,3,7,6,35,3,39,301,713,343,I.E.GUADALUPE,I.E.GUADALUPE,Cra 42B 95A -23,6.2868493,-75.550005,01COMUNA 1 POPULAR,exacto,0.05,15.79,0.15,30.7,0.25,31.82,0.19,22.22,0.02,5.45,0.22,20.48,0.42,22.56,0.16,18.61
20_1,MEDELLIN,20,1.0,CENTRO COMERCIAL SAN DIEGO,135,43,64,656,321,197,1353,1025,3359,CENTRO COMERCIAL SAN DIEGO,CENTRO COMERCIAL SAN DIEGO,CL 34 # 43-66,6.2341186,-75.5686026,10COMUNA 10 LA CANDELARIA,exacto,2.05,72.58,2.74,85.53,1.51,53.75,2.08,82.05,2.06,80.65,0.98,53.0,0.61,33.15,1.58,62.87
20_2,MEDELLIN,20,2.0,ALCALDIA MUNICIPAL (SOTANO),32,8,10,80,54,108,773,1050,1357,ALCALDIA MUNICIPAL (SOTANO),ALCALDIA MUNICIPAL (SOTANO),CL 44 # 52-165,6.2447361,-75.5737805,10COMUNA 10 LA CANDELARIA,exacto,0.49,17.2,0.33,10.43,0.28,10.0,0.32,12.82,0.35,13.57,0.56,30.28,0.62,33.96,0.64,25.4
20_3,MEDELLIN,20,3.0,SENA,4,4,2,18,16,30,266,485,453,SENA,SENA,CL 51 # 57-70,6.2546931,-75.5748275,10COMUNA 10 LA CANDELARIA,exacto,0.06,2.15,0.08,2.35,0.14,5.0,0.06,2.56,0.1,4.02,0.19,10.42,0.29,15.69,0.21,8.48
20_4,MEDELLIN,20,4.0,UNIVERSIDAD CLARETIANA,14,25,2,13,5,4,109,476,127,UNIVERSIDAD CLARETIANA,UNIVERSIDAD CLARETIANA,CARRERA 55A # 61-06,6.2604137,-75.5701756,10COMUNA 10 LA CANDELARIA,exacto,0.21,7.53,0.05,1.69,0.88,31.25,0.06,2.56,0.03,1.26,0.08,4.27,0.28,15.39,0.06,2.38
20_5,MEDELLIN,20,5.0,PLAZA MINORISTA JOSE MARIA VILLA,1,0,0,0,2,4,52,56,47,PLAZA MINORISTA JOSE MARIA VILLA,,,6.257058,-75.573546,,,0.02,0.54,0.0,0.0,0.0,0.0,0.0,0.0,0.01,0.5,0.04,2.04,0.03,1.81,0.02,0.88
21_1,MEDELLIN,21,1.0,INSTITUTO JORGE ROBLEDO,120,32,54,369,113,68,821,945,1645,INSTITUTO JORGE ROBLEDO,INSTITUTO JORGE ROBLEDO,CL 51 # 65 - 72,6.2573614,-75.5820395,11COMUNA 11 LAURELES,exacto,1.82,27.15,1.54,28.15,1.13,20.65,1.75,35.53,0.73,23.3,0.6,17.96,0.56,25.34,0.77,20.4
21_2,MEDELLIN,21,2.0,I.E. MATER DEI,95,30,28,408,161,153,1077,579,2275,I.E. MATER DEI,INST.EDUC. MATER DEI,KR 68 # 42-70,6.247456,-75.5860724,11COMUNA 11 LAURELES,fuzzy,1.44,21.49,1.7,31.12,1.05,19.35,0.91,18.42,1.04,33.2,0.78,23.57,0.34,15.52,1.07,28.21
21_3,MEDELLIN,21,3.0,I.E. MARCO FIDEL SUAREZ,84,20,28,251,82,97,927,821,1429,I.E. MARCO FIDEL SUAREZ,,,6.25764,-75.586,,,1.27,19.0,1.05,19.15,0.7,12.9,0.91,18.42,0.53,16.91,0.67,20.28,0.48,22.01,0.67,17.72
21_4,MEDELLIN,21,4.0,COL. CALASANZ (FEM) CAMPESTRE ESCOLAPIAS,80,51,25,187,81,107,1148,865,1800,COL. CALASANZ (FEM) CAMPESTRE ESCOLAPIAS,COLEGIO CALASANZ FEMENINO,CALLE 55 No 77-71,6.2664968,-75.5902849,11COMUNA 11 LAURELES,manual,1.21,18.1,0.78,14.26,1.79,32.9,0.81,16.45,0.52,16.7,0.83,25.12,0.51,23.19,0.85,22.32
21_5,MEDELLIN,21,5.0,COL. SAN IGNACIO DE LOYOLA - SD MAYORES,32,12,12,60,31,23,383,337,556,COL. SAN IGNACIO DE LOYOLA - SD MAYORES,COL SAN IGNACIO SD MAYORES,CLL 48 No 68-98,6.2546717,-75.5866224,11COMUNA 11 LAURELES,fuzzy,0.49,7.24,0.25,4.58,0.42,7.74,0.39,7.89,0.2,6.39,0.28,8.38,0.2,9.03,0.26,6.89
21_6,MEDELLIN,21,6.0,SEC. ESC. CARLOS OBANDO VELASCO,31,6,5,36,16,37,192,148,319,SEC. ESC. CARLOS OBANDO VELASCO,SEC. ESC. CARLOS OBANDO VELASCO,CRA 67A No 42-24,6.2466932,-75.5855597,11COMUNA 11 LAURELES,exacto,0.47,7.01,0.15,2.75,0.21,3.87,0.16,3.29,0.1,3.3,0.14,4.2,0.09,3.97,0.15,3.96
21_7,MEDELLIN,21,7.0,INST. UNIVERSITARIA SALAZAR Y HERRERA,0,4,0,0,1,2,22,35,41,INST. UNIVERSITARIA SALAZAR Y HERRERA,INST. UNIVERSITARIA SALAZAR Y HERRERA,CRA 70 No 52-49,6.2604592,-75.5853259,11COMUNA 11 LAURELES,exacto,0.0,0.0,0.0,0.0,0.14,2.58,0.0,0.0,0.01,0.21,0.02,0.48,0.02,0.94,0.02,0.51
22_1,MEDELLIN,22,1.0,SEC.ESC. AGRUPACION COLOMBIA,72,25,27,298,139,115,1191,626,2527,SEC.ESC. AGRUPACION COLOMBIA,SEC.ESC. AGRUPACION COLOMBIA,CL 44A # 75-68,6.2505392,-75.5949142,11COMUNA 11 LAURELES,exacto,1.09,11.56,1.24,16.88,0.88,10.12,0.88,11.07,0.89,15.58,0.87,19.89,0.37,17.43,1.19,20.78
22_2,MEDELLIN,22,2.0,I.E. LUCRECIO JARAMILLO VELEZ,164,33,86,671,353,309,1578,640,4039,I.E. LUCRECIO JARAMILLO VELEZ,I.E. LUCRECIO JARAMILLO VELEZ,KR 79 # 38-59,6.2462873,-75.5992214,11COMUNA 11 LAURELES,exacto,2.49,26.32,2.8,38.02,1.16,13.36,2.79,35.25,2.27,39.57,1.15,26.35,0.38,17.82,1.9,33.22
22_3,MEDELLIN,22,3.0,COLEGIO BETHLEMITAS,105,50,44,230,132,122,744,408,1694,COLEGIO BETHLEMITAS,COLEGIO BETLEHEMITAS,TRV 36 No 72 - 93,6.2408545,-75.5955852,11COMUNA 11 LAURELES,fuzzy,1.59,16.85,0.96,13.03,1.76,20.24,1.43,18.03,0.85,14.8,0.54,12.42,0.24,11.36,0.8,13.93
22_4,MEDELLIN,22,4.0,COL. SAN IGNACIO DE LOYOLA - SD INFANTIL,48,29,15,147,60,58,521,449,732,COL. SAN IGNACIO DE LOYOLA - SD INFANTIL,COL.SAN IGNACIO (SEC.INFANTIL),CALLE 47D No. 75-83,6.254278,-75.59275,11COMUNA 11 LAURELES,fuzzy,0.73,7.7,0.61,8.33,1.02,11.74,0.49,6.15,0.39,6.73,0.38,8.7,0.27,12.5,0.34,6.02
22_5,MEDELLIN,22,5.0,CORP. UNIVERSITARIA ADVENTISTA - UNAC,50,28,16,123,58,66,701,398,1084,CORP. UNIVERSITARIA ADVENTISTA - UNAC,,,6.240713,-75.608806,,,0.76,8.03,0.51,6.97,0.98,11.34,0.52,6.56,0.37,6.5,0.51,11.71,0.24,11.08,0.51,8.91
22_6,MEDELLIN,22,6.0,UNIVERSIDAD PONTIFICIA BOLIVARIANA,184,82,56,296,150,144,1253,1070,2084,UNIVERSIDAD PONTIFICIA BOLIVARIANA,UNIVERSIDAD PONTIFICIA BOLIVARIANA,CIR 1 No 70 - 01,6.243,-75.589,11COMUNA 11 LAURELES,exacto,2.79,29.53,1.24,16.77,2.88,33.2,1.82,22.95,0.96,16.82,0.91,20.93,0.63,29.8,0.98,17.14
23_1,MEDELLIN,23,1.0,SEC. ESC. SANTA LUCIA,42,27,17,173,50,64,1230,865,1575,SEC. ESC. SANTA LUCIA,SEC. ESC. SANTA LUCIA,KR 89A # 47DD-71,6.2581429,-75.6060178,12COMUNA 12 LA AMERICA,exacto,0.64,12.32,0.72,14.91,0.95,19.29,0.55,12.88,0.32,14.25,0.89,21.81,0.51,17.26,0.74,19.2
23_2,MEDELLIN,23,2.0,I.E. CONCEJO DE MEDELLIN,164,38,71,657,188,194,2032,1449,3539,I.E. CONCEJO DE MEDELLIN,I.E. CONCEJO DE MEDELLIN,KR 82 # 47A-65,6.2584902,-75.6004229,12COMUNA 12 LA AMERICA,exacto,2.49,48.09,2.74,56.64,1.34,27.14,2.31,53.79,1.21,53.56,1.48,36.03,0.86,28.92,1.66,43.13
23_3,MEDELLIN,23,3.0,I.E. LA PIEDAD,38,15,11,149,53,57,800,798,1074,I.E. LA PIEDAD,I.E. LA PIEDAD,KR 81 NO 54 71,6.26924,-75.596553,12COMUNA 12 LA AMERICA,exacto,0.58,11.14,0.62,12.84,0.53,10.71,0.36,8.33,0.34,15.1,0.58,14.18,0.47,15.92,0.5,13.09
23_4,MEDELLIN,23,4.0,I.E.SANTA ROSA DE LIMA,45,17,16,95,23,56,595,698,799,I.E.SANTA ROSA DE LIMA,I.E.SANTA ROSA DE LIMA,CALLE 45G No. 80-95,6.255734,-75.599375,12COMUNA 12 LA AMERICA,exacto,0.68,13.2,0.4,8.19,0.6,12.14,0.52,12.12,0.15,6.55,0.43,10.55,0.41,13.93,0.38,9.74
23_5,MEDELLIN,23,5.0,IE LOLA GONZALEZ,24,19,7,51,14,28,449,558,492,IE LOLA GONZALEZ,IE LOLA GONZALEZ,CLL 47F No 94-63,6.2574157,-75.6109333,12COMUNA 12 LA AMERICA,exacto,0.36,7.04,0.21,4.4,0.67,13.57,0.23,5.3,0.09,3.99,0.33,7.96,0.33,11.14,0.23,6.0
23_6,MEDELLIN,23,6.0,INST. FERRINI - SD CALASANZ,28,24,10,35,23,44,534,643,726,INST. FERRINI - SD CALASANZ,INST FERRINI CALASANZ,CLL 51A No 81B - 33,6.2649823,-75.5988665,12COMUNA 12 LA AMERICA,fuzzy,0.42,8.21,0.15,3.02,0.84,17.14,0.32,7.58,0.15,6.55,0.39,9.47,0.38,12.83,0.34,8.85
24_1,MEDELLIN,24,1.0,COLEGIO LATINO,35,9,16,220,83,124,991,515,1762,COLEGIO LATINO,,,6.243248,-75.611431,,,0.53,14.0,0.92,21.83,0.32,7.63,0.52,13.91,0.53,22.93,0.72,20.45,0.3,15.58,0.83,23.77
24_2,MEDELLIN,24,2.0,SEC.ESC.RAFAEL URIBE URIBE,40,8,14,153,25,33,359,293,492,SEC.ESC.RAFAEL URIBE URIBE,SEC.ESC.RAFAEL URIBE URIBE,CARRERA 83 No. 42C - 54,6.2486908,-75.6043026,12COMUNA 12 LA AMERICA,exacto,0.61,16.0,0.64,15.18,0.28,6.78,0.45,12.17,0.16,6.91,0.26,7.41,0.17,8.87,0.23,6.64
24_3,MEDELLIN,24,3.0,SEC. ESC. PEDRO DE CASTRO,19,4,17,283,59,81,672,304,1292,SEC. ESC. PEDRO DE CASTRO,SEC. ESC. PEDRO DE CASTRO,CL 40 # 86A-101,6.2486612,-75.6081857,12COMUNA 12 LA AMERICA,exacto,0.29,7.6,1.18,28.08,0.14,3.39,0.55,14.78,0.38,16.3,0.49,13.86,0.18,9.2,0.61,17.43
24_4,MEDELLIN,24,4.0,I.E.FRANCISCO ANTONIO ZEA,43,21,16,145,70,87,590,369,919,I.E.FRANCISCO ANTONIO ZEA,I.E.FRANCISCO ANTONIO ZEA,KR 82 # 35-40,6.243983,-75.6039945,12COMUNA 12 LA AMERICA,exacto,0.65,17.2,0.61,14.38,0.74,17.8,0.52,13.91,0.45,19.34,0.43,12.17,0.22,11.16,0.43,12.4
24_5,MEDELLIN,24,5.0,I.E AMERICA,16,15,14,63,25,20,402,315,441,I.E AMERICA,I.E AMERICA,CALLE 34 EE No. 91-20,6.245908,-75.615729,12COMUNA 12 LA AMERICA,exacto,0.24,6.4,0.26,6.25,0.53,12.71,0.45,12.17,0.16,6.91,0.29,8.29,0.19,9.53,0.21,5.95
24_6,MEDELLIN,24,6.0,C4TA CIUDADELA,10,8,4,28,4,19,208,337,257,C4TA CIUDADELA,,,6.253391,-75.613906,,,0.15,4.0,0.12,2.78,0.28,6.78,0.13,3.48,0.03,1.1,0.15,4.29,0.2,10.2,0.12,3.47
24_7,MEDELLIN,24,7.0,LICEO SALAZAR Y HERRERA,87,53,34,116,96,112,1625,1172,2250,LICEO SALAZAR Y HERRERA,LICEO SALAZAR Y HERRERA,CLL 42C No 86-17,6.2487494,-75.6059736,12COMUNA 12 LA AMERICA,exacto,1.32,34.8,0.48,11.51,1.86,44.92,1.1,29.57,0.62,26.52,1.18,33.53,0.69,35.46,1.06,30.35
25_1,MEDELLIN,25,1.0,I.E. BLANQUIZAL,4,1,4,9,8,14,224,636,302,I.E. BLANQUIZAL,I.E. BLANQUIZAL,KR 92 DD # 57F - 43,6.2752093,-75.6056542,13COMUNA 13 SAN JAVIER,exacto,0.06,5.71,0.04,2.95,0.04,2.08,0.13,7.69,0.05,7.41,0.16,7.51,0.38,16.62,0.14,7.61
25_2,MEDELLIN,25,2.0,SEC. ESC. REPUBLICA DE PANAMA,10,7,10,43,14,33,604,528,679,SEC. ESC. REPUBLICA DE PANAMA,SEC. ESC. REPUBLICA DE PANAMA,KR 88 # 49DD-70,6.2630895,-75.6065877,13COMUNA 13 SAN JAVIER,exacto,0.15,14.29,0.18,14.1,0.25,14.58,0.32,19.23,0.09,12.96,0.44,20.24,0.31,13.8,0.32,17.12
25_3,MEDELLIN,25,3.0,I.E JUAN XXIII,5,13,11,21,8,11,319,630,310,I.E JUAN XXIII,I.E JUAN XXIII,CALLE 49 No 96A-11,6.261773,-75.610309,13COMUNA 13 SAN JAVIER,exacto,0.08,7.14,0.09,6.89,0.46,27.08,0.36,21.15,0.05,7.41,0.23,10.69,0.37,16.47,0.15,7.81
25_4,MEDELLIN,25,4.0,SEC. ESC. MONSEÑOR PERDOMO,25,15,16,113,39,69,886,794,1368,SEC. ESC. MONSEÃ‘OR PERDOMO,SEC. ESC. MONSEÑOR PERDOMO,CL 44 # 97-14,6.2558928,-75.614051,13COMUNA 13 SAN JAVIER,fuzzy,0.38,35.71,0.47,37.05,0.53,31.25,0.52,30.77,0.25,36.11,0.64,29.69,0.47,20.75,0.64,34.48
25_5,MEDELLIN,25,5.0,SEC.ESC.PIO XII,17,10,10,108,33,55,705,776,993,SEC.ESC.PIO XII,SEC.ESC.PIO XII,KR 98 # 44-52,6.2564304,-75.614097,13COMUNA 13 SAN JAVIER,exacto,0.26,24.29,0.45,35.41,0.35,20.83,0.32,19.23,0.21,30.56,0.51,23.63,0.46,20.28,0.47,25.03
25_6,MEDELLIN,25,6.0,I.E.STELLA VELEZ LONDOÑO,6,1,1,9,5,3,149,220,128,I.E.STELLA VELEZ LONDOÃ‘O,I.E.STELLA VELEZ LONDOÑO,CALLE 48DD No. 99D-118,6.2683087,-75.6161352,13COMUNA 13 SAN JAVIER,fuzzy,0.09,8.57,0.04,2.95,0.04,2.08,0.03,1.92,0.03,4.63,0.11,4.99,0.13,5.75,0.06,3.23
25_7,MEDELLIN,25,7.0,SEC ESC JUAN DE DIOS ARANZAZU,3,1,0,2,1,16,97,242,187,SEC ESC JUAN DE DIOS ARANZAZU,SEC ESC JUAN DE DIOS ARANZAZU,CLL 42 No 105 - 42,6.2559273,-75.6200164,13COMUNA 13 SAN JAVIER,exacto,0.05,4.29,0.01,0.66,0.04,2.08,0.0,0.0,0.01,0.93,0.07,3.25,0.14,6.33,0.09,4.71
26_1,MEDELLIN,26,1.0,I.E.LA INDEPENDENCIA,8,12,8,45,27,61,616,1105,1109,I.E.LA INDEPENDENCIA,I.E.LA INDEPENDENCIA,CALLE 39D No. 112 - 81,6.2529775,-75.623372,13COMUNA 13 SAN JAVIER,exacto,0.12,21.05,0.19,23.2,0.42,40.0,0.26,19.51,0.17,25.23,0.45,18.52,0.65,21.53,0.52,26.27
26_2,MEDELLIN,26,2.0,SEC.ESC.EL SOCORRO,5,1,1,50,13,21,306,717,348,SEC.ESC.EL SOCORRO,SEC.ESC.EL SOCORRO,CARRERA 102B No. 47B - 32,6.2592401,-75.6182627,13COMUNA 13 SAN JAVIER,exacto,0.08,13.16,0.21,25.77,0.04,3.33,0.03,2.44,0.08,12.15,0.22,9.2,0.42,13.97,0.16,8.24
26_3,MEDELLIN,26,3.0,SEC. ESC. BETANIA,3,3,9,27,16,35,851,719,722,SEC. ESC. BETANIA,SEC.ESC.MIXTA BETANIA,CRA 110 A  No. 34 A 82,6.2462225,-75.6226727,13COMUNA 13 SAN JAVIER,fuzzy,0.05,7.89,0.11,13.92,0.11,10.0,0.29,21.95,0.1,14.95,0.62,25.59,0.42,14.01,0.34,17.1
26_4,MEDELLIN,26,4.0,I.E.EL CORAZON,7,0,2,6,6,18,259,364,192,I.E.EL CORAZON,I.E.EL CORAZON,CARRERA 116F No. 34AA - 131,6.2475408,-75.6299079,13COMUNA 13 SAN JAVIER,exacto,0.11,18.42,0.03,3.09,0.0,0.0,0.06,4.88,0.04,5.61,0.19,7.79,0.21,7.09,0.09,4.55
26_5,MEDELLIN,26,5.0,I.E.EDUARDO SANTOS,2,4,1,24,15,21,267,494,314,I.E.EDUARDO SANTOS,I.E.EDUARDO SANTOS,CALLE 43 No. 120C - 77,6.2587397,-75.6289365,13COMUNA 13 SAN JAVIER,exacto,0.03,5.26,0.1,12.37,0.14,13.33,0.03,2.44,0.1,14.02,0.19,8.03,0.29,9.62,0.15,7.44
26_6,MEDELLIN,26,6.0,I.E. CARLOS VIECO ORTIZ,11,5,6,39,14,43,421,795,587,I.E. CARLOS VIECO ORTIZ,I.E.CARLOS VIECO,CALLE 40 No. 105 - 36,6.2547856,-75.6198539,13COMUNA 13 SAN JAVIER,fuzzy,0.17,28.95,0.16,20.1,0.18,16.67,0.19,14.63,0.09,13.08,0.31,12.66,0.47,15.49,0.28,13.9
26_7,MEDELLIN,26,7.0,SEC. ESC. AMOR AL NIÑO,1,4,3,3,4,16,168,452,198,SEC. ESC. AMOR AL NIÃ‘O,SEDE AMOR AL NIÑO,Calle 39 D No. 112-81( INT. 110),6.2530412,-75.6244561,13COMUNA 13 SAN JAVIER,fuzzy,0.02,2.63,0.01,1.55,0.14,13.33,0.1,7.32,0.03,3.74,0.12,5.05,0.27,8.81,0.09,4.69
26_8,MEDELLIN,26,8.0,I.E FUNDADORES,1,1,11,0,12,23,413,443,713,I.E FUNDADORES,,,6.259367,-75.616616,,,0.02,2.63,0.0,0.0,0.04,3.33,0.36,26.83,0.08,11.21,0.3,12.42,0.26,8.63,0.33,16.89
26_9,MEDELLIN,26,9.0,SEC. ESC. VEINTE DE JULIO,0,0,0,0,0,3,25,44,39,SEC. ESC. VEINTE DE JULIO,SEC.ESC.JACKELINE KENNEDY,CL 17 # 73-37,6.2225851,-75.5955838,16COMUNA 16 BELEN,manual,0.0,0.0,0.0,0.0,0.0,0.0,0.0,0.0,0.0,0.0,0.02,0.75,0.03,0.86,0.02,0.92
27_1,MEDELLIN,27,1.0,PARQUE COMERCIAL EL TESORO,116,31,73,630,1100,189,1171,253,4140,PARQUE COMERCIAL EL TESORO,,,6.196409,-75.558897,,,1.76,26.73,2.63,34.92,1.09,25.41,2.37,35.61,7.07,29.4,0.85,29.62,0.15,30.93,1.94,31.23
27_2,MEDELLIN,27,2.0,COL.MARYMOUNT,181,46,74,747,1794,254,1514,242,5517,COL.MARYMOUNT,COL.MARYMOUNT,CALLE 7 No. 25-64,6.2056287,-75.5561722,14COMUNA 14 EL POBLADO,exacto,2.75,41.71,3.12,41.41,1.62,37.7,2.4,36.1,11.54,47.96,1.1,38.3,0.14,29.58,2.59,41.62
27_3,MEDELLIN,27,3.0,COLEGIO SAN LUCAS,69,25,28,264,592,85,742,121,2242,COLEGIO SAN LUCAS,COLEGIO SAN LUCAS,CLL 20 SUR No 25B-91,6.1813493,-75.5664715,14COMUNA 14 EL POBLADO,exacto,1.05,15.9,1.1,14.63,0.88,20.49,0.91,13.66,3.81,15.82,0.54,18.77,0.07,14.79,1.05,16.91
27_4,MEDELLIN,27,4.0,SEC. ESC. GUILLERMO ECHAVARRIA MISAS,51,14,23,163,96,42,310,165,700,SEC. ESC. GUILLERMO ECHAVARRIA MISAS,ESC GUILLERMO ECHAVARRIA MISAS,CRA 43B No 9-61,6.2106366,-75.5714951,14COMUNA 14 EL POBLADO,fuzzy,0.77,11.75,0.68,9.04,0.49,11.48,0.75,11.22,0.62,2.57,0.23,7.84,0.1,20.17,0.33,5.28
27_5,MEDELLIN,27,5.0,COLEGIO CAMPESTRE MANZANARES,8,3,2,0,119,28,103,22,397,COLEGIO CAMPESTRE MANZANARES,COLEGIO CAMPESTRE MANZANARES,CARRERA 16 No 12 SUR 28,6.1848033,-75.5562621,14COMUNA 14 EL POBLADO,exacto,0.12,1.84,0.0,0.0,0.11,2.46,0.06,0.98,0.77,3.18,0.07,2.61,0.01,2.69,0.19,2.99
27_6,MEDELLIN,27,6.0,COLEGIO SAN JOSE DE LA SALLE,9,3,5,0,40,27,113,15,260,COLEGIO SAN JOSE DE LA SALLE,COLEGIO SAN JOSE DE LA SALLE,CALLE 9 No 10 337,6.2042579,-75.5465305,14COMUNA 14 EL POBLADO,exacto,0.14,2.07,0.0,0.0,0.11,2.46,0.16,2.44,0.26,1.07,0.08,2.86,0.01,1.83,0.12,1.96
28_1,MEDELLIN,28,1.0,POLITECNICO JAIME ISAZA CADAVID,153,57,77,495,406,146,1255,844,3011,POLITECNICO JAIME ISAZA CADAVID,POLITECNICO JAIME ISAZA CADAVID,CARRERA 48 No. 7 - 151,6.2092851,-75.5766121,14COMUNA 14 EL POBLADO,exacto,2.32,16.22,2.07,12.42,2.0,24.89,2.5,17.46,2.61,10.01,0.91,20.08,0.5,39.74,1.41,16.28
28_2,MEDELLIN,28,2.0,I.E. INEM JOSE FELIX DE RESTREPO,229,44,86,1078,967,194,1236,380,3527,I.E. INEM JOSE FELIX DE RESTREPO,INEM JOSE FELIX DE RESTREPO,CARRERA 48 No. 1 - 125,6.2067035,-75.577043,14COMUNA 14 EL POBLADO,fuzzy,3.47,24.28,4.5,27.05,1.55,19.21,2.79,19.5,6.22,23.84,0.9,19.77,0.22,17.89,1.66,19.07
28_3,MEDELLIN,28,3.0,UNIVERSIDAD EAFIT,239,47,133,1157,1158,257,1430,352,5033,UNIVERSIDAD EAFIT,UNIVERSIDAD EAFIT,KR 49 # 7 SUR 50,6.2000877,-75.5793923,14COMUNA 14 EL POBLADO,exacto,3.63,25.34,4.83,29.03,1.65,20.52,4.32,30.16,7.45,28.55,1.04,22.88,0.21,16.57,2.36,27.22
28_4,MEDELLIN,28,4.0,COL DE LA COMPAÑIA DE MARIA LA ENSEÑANZA,101,25,61,564,760,183,906,196,3575,COL DE LA COMPAÃ‘IA DE MARIA LA ENSEÃ‘ANZA,COL DE LA COMPAÑIA DE MARIA LA ENSEÑANZA,CALLE 9 SUR No 37-345,6.1945762,-75.5739114,14COMUNA 14 EL POBLADO,fuzzy,1.53,10.71,2.35,14.15,0.88,10.92,1.98,13.83,4.89,18.74,0.66,14.49,0.12,9.23,1.68,19.33
28_5,MEDELLIN,28,5.0,COL. SAN JOSE DE LAS VEGAS,214,49,80,691,678,161,1313,332,3033,COL. SAN JOSE DE LAS VEGAS,SAN JOSE DE LAS VEGAS,CRA 48 No 7SUR-52,6.1986132,-75.5768624,14COMUNA 14 EL POBLADO,fuzzy,3.25,22.69,2.88,17.34,1.72,21.4,2.6,18.14,4.36,16.72,0.95,21.0,0.2,15.63,1.42,16.4
28_6,MEDELLIN,28,6.0,COLEGIO PINARES ALTOVERDE,7,7,4,0,87,12,111,20,313,COLEGIO PINARES ALTOVERDE,COLEGIO PINARES ALTOVERDE,CARRERA 35 No 9 SUR 160,6.1913367,-75.5705791,14COMUNA 14 EL POBLADO,exacto,0.11,0.74,0.0,0.0,0.25,3.06,0.13,0.91,0.56,2.14,0.08,1.78,0.01,0.94,0.15,1.69
29_1,MEDELLIN,29,1.0,I.E. CAMILO C. RESTREPO,14,6,5,44,25,61,512,518,812,I.E. CAMILO C. RESTREPO,COLEGIO CAMILO C RESTREPO,Cra 65 D # 24-40,6.2258167,-75.5851799,15COMUNA 15 GUAYABAL,fuzzy,0.21,7.53,0.18,5.7,0.21,6.45,0.16,6.41,0.16,7.31,0.37,11.23,0.31,12.06,0.38,10.55
29_2,MEDELLIN,29,2.0,I.E.BENJAMIN HERRERA,29,12,23,156,41,236,709,667,1390,I.E.BENJAMIN HERRERA,I.E.BENJAMIN HERRERA,CL 25 # 52-140,6.2265428,-75.5797192,15COMUNA 15 GUAYABAL,exacto,0.44,15.59,0.65,20.21,0.42,12.9,0.75,29.49,0.26,11.99,0.52,15.55,0.39,15.53,0.65,18.07
29_3,MEDELLIN,29,3.0,I.E.CRISTO REY,42,19,19,210,73,142,987,738,1750,I.E.CRISTO REY,I.E.CRISTO REY,CALLE 2 SUR No. 50D - 30,6.2050568,-75.5816466,15COMUNA 15 GUAYABAL,exacto,0.64,22.58,0.88,27.2,0.67,20.43,0.62,24.36,0.47,21.35,0.72,21.65,0.44,17.18,0.82,22.74
29_4,MEDELLIN,29,4.0,SEC. ESC. REPUBLICA DE COSTA RICA,30,9,9,72,91,96,758,703,1271,SEC. ESC. REPUBLICA DE COSTA RICA,SECCION ESC REPUBLICA DE COSTA RICA,CARRERA 52 No 7 SUR -23,6.2028216,-75.5881928,15COMUNA 15 GUAYABAL,fuzzy,0.46,16.13,0.3,9.33,0.32,9.68,0.29,11.54,0.59,26.61,0.55,16.63,0.42,16.36,0.6,16.52
29_5,MEDELLIN,29,5.0,SEC.ESC.LA COLINA,24,17,8,106,34,65,623,708,974,SEC.ESC.LA COLINA,SEC.ESC.LA COLINA,KR 52C 12A SUR -23,6.1974991,-75.5917763,15COMUNA 15 GUAYABAL,exacto,0.36,12.9,0.44,13.73,0.6,18.28,0.26,10.26,0.22,9.94,0.45,13.67,0.42,16.48,0.46,12.66
29_6,MEDELLIN,29,6.0,I.E. LA SALLE DE CAMPOAMOR,30,19,8,145,53,69,742,586,1101,I.E. LA SALLE DE CAMPOAMOR,I.E. LA SALLE CAMPO AMOR,CARRERA 65B No. 4 - 49,6.2126656,-75.5876069,15COMUNA 15 GUAYABAL,fuzzy,0.46,16.13,0.61,18.78,0.67,20.43,0.26,10.26,0.34,15.5,0.54,16.28,0.35,13.64,0.52,14.31
29_7,MEDELLIN,29,7.0,SEC ESC CRISTO REY APOLO,17,11,6,39,24,39,228,373,394,SEC ESC CRISTO REY APOLO,SEC ESC CRISTO REY APOLO,CRA 50G No 3SUR-34,6.2054535,-75.5837377,15COMUNA 15 GUAYABAL,exacto,0.26,9.14,0.16,5.05,0.39,11.83,0.19,7.69,0.15,7.02,0.17,5.0,0.22,8.68,0.18,5.12
29_8,MEDELLIN,29,8.0,SEC. ESC. SANTISIMA TRINIDAD,0,0,0,0,1,0,0,3,2,SEC. ESC. SANTISIMA TRINIDAD,,,6.227965,-75.586401,,,0.0,0.0,0.0,0.0,0.0,0.0,0.0,0.0,0.01,0.29,0.0,0.0,0.0,0.07,0.0,0.03
3_1,MEDELLIN,3,1.0,I.E.  ASIA IGNACIANA,14,6,10,37,27,196,616,1585,1044,I.E.  ASIA IGNACIANA,I.E.  ASIA IGNACIANA,CL 122 # 51B-30,6.3062054,-75.5550912,02COMUNA 2 SANTA CRUZ,exacto,0.21,36.84,0.15,34.91,0.21,24.0,0.32,35.71,0.17,36.49,0.45,31.98,0.94,36.79,0.49,38.5
3_2,MEDELLIN,3,2.0,SEC.ESC.  MANUEL URIBE ANGEL,15,8,10,44,32,94,686,1578,886,SEC.ESC.  MANUEL URIBE ANGEL,SEC.ESC.  MANUEL URIBE ANGEL,KR 49A #107-65,6.2980908,-75.5537062,02COMUNA 2 SANTA CRUZ,exacto,0.23,39.47,0.18,41.51,0.28,32.0,0.32,35.71,0.21,43.24,0.5,35.62,0.93,36.63,0.42,32.67
3_3,MEDELLIN,3,3.0,SEC. ESC. FIDEL ANTONIO SALDARRIAGA,5,10,6,25,9,38,460,783,606,SEC. ESC. FIDEL ANTONIO SALDARRIAGA,SEC. ESC. FIDEL ANTONIO SALDARRIAGA,CRA 48 No 103B-01,6.2939796,-75.5538734,02COMUNA 2 SANTA CRUZ,exacto,0.08,13.16,0.1,23.58,0.35,40.0,0.19,21.43,0.06,12.16,0.33,23.88,0.46,18.18,0.28,22.35
3_4,MEDELLIN,3,4.0,SEC ESC LA FRONTERA,4,1,2,0,6,13,164,362,176,SEC ESC LA FRONTERA,SEC ESC LA FRONTERA,CALLE 122 No 50A 14,6.3060177,-75.5526666,02COMUNA 2 SANTA CRUZ,exacto,0.06,10.53,0.0,0.0,0.04,4.0,0.06,7.14,0.04,8.11,0.12,8.52,0.21,8.4,0.08,6.49
30_1,MEDELLIN,30,1.0,I.E. FATIMA NUTIBARA,73,24,31,278,98,142,1065,726,2083,I.E. FATIMA NUTIBARA,I.E. FATIMA NUTIBARA,CARRERA 65A No. 32B - 120,6.236839,-75.5829618,16COMUNA 16 BELEN,exacto,1.11,17.98,1.16,17.72,0.84,15.89,1.01,21.38,0.63,17.82,0.77,16.81,0.43,15.99,0.98,18.5
30_10,MEDELLIN,30,10.0,INSTITUCION EDUCATIVA ROSALIA SUAREZ,20,12,4,0,31,29,356,303,467,INSTITUCION EDUCATIVA ROSALIA SUAREZ,INSTITUCION EDUCATIVA ROSALIA SUAREZ,CALLE 30A No 80 18,6.232214,-75.6001044,16COMUNA 16 BELEN,exacto,0.3,4.93,0.0,0.0,0.42,7.95,0.13,2.76,0.2,5.64,0.26,5.62,0.18,6.67,0.22,4.15
30_2,MEDELLIN,30,2.0,SEC. ESC. SOFIA OSPINA DE NAVARRO,52,8,22,206,127,136,568,271,1495,SEC. ESC. SOFIA OSPINA DE NAVARRO,ESC.SOFIA OSPINA DE NAVARRO,CALLE 32 No. 65-20,6.2352032,-75.5831062,16COMUNA 16 BELEN,fuzzy,0.79,12.81,0.86,13.13,0.28,5.3,0.71,15.17,0.82,23.09,0.41,8.97,0.16,5.97,0.7,13.28
30_3,MEDELLIN,30,3.0,I.E.JUAN MARIA CESPEDES,116,20,43,480,155,232,1802,966,3355,I.E.JUAN MARIA CESPEDES,I.E.JUAN MARIA CESPEDES,CALLE 32B No. 76A - 48,6.235246,-75.5967539,16COMUNA 16 BELEN,exacto,1.76,28.57,2.0,30.59,0.7,13.25,1.4,29.66,1.0,28.18,1.31,28.45,0.57,21.27,1.58,29.79
30_4,MEDELLIN,30,4.0,I.E. GUILLERMO VALENCIA,34,17,11,177,41,134,855,722,1303,I.E. GUILLERMO VALENCIA,I.E. GUILLERMO VALENCIA,CALLE 23 No. 78 - 48,6.2268051,-75.5991161,16COMUNA 16 BELEN,exacto,0.52,8.37,0.74,11.28,0.6,11.26,0.36,7.59,0.26,7.45,0.62,13.5,0.43,15.9,0.61,11.57
30_5,MEDELLIN,30,5.0,UNID.DEPORTIVA ANDRES ESCOBAR,32,25,8,137,32,44,465,369,600,UNID.DEPORTIVA ANDRES ESCOBAR,UNID.DEPORTIVA ANDRES ESCOBAR,CRA 66B No 31A - 15,6.2344447,-75.5886541,16COMUNA 16 BELEN,exacto,0.49,7.88,0.57,8.73,0.88,16.56,0.26,5.52,0.21,5.82,0.34,7.34,0.22,8.13,0.28,5.33
30_6,MEDELLIN,30,6.0,LICEO SAN RAFAEL,57,32,15,238,49,96,785,729,1228,LICEO SAN RAFAEL,LICEO SAN RAFAEL,CALLE 30A No. 79 - 13,6.2322711,-75.5994495,16COMUNA 16 BELEN,exacto,0.86,14.04,0.99,15.17,1.13,21.19,0.49,10.34,0.32,8.91,0.57,12.39,0.43,16.05,0.58,10.9
30_7,MEDELLIN,30,7.0,COLEGIO SAN JUAN BOSCO,10,8,8,53,11,34,287,281,533,COLEGIO SAN JUAN BOSCO,COLEGIO SAN JUAN BOSCO,CLL 28 No 73-01,6.2289758,-75.5939467,16COMUNA 16 BELEN,exacto,0.15,2.46,0.22,3.38,0.28,5.3,0.26,5.52,0.07,2.0,0.21,4.53,0.17,6.19,0.25,4.73
30_8,MEDELLIN,30,8.0,IE YERMO Y PARRES,10,4,1,0,4,5,118,128,147,IE YERMO Y PARRES,IE YERMO Y PARRES,CALLE 28 No 77 84,6.2295483,-75.5978031,16COMUNA 16 BELEN,exacto,0.15,2.46,0.0,0.0,0.14,2.65,0.03,0.69,0.03,0.73,0.09,1.86,0.08,2.82,0.07,1.31
30_9,MEDELLIN,30,9.0,SECCION ESCUELA CARLOS FRANCO,2,1,2,0,2,3,33,46,50,SECCION ESCUELA CARLOS FRANCO,SECCION ESCUELA CARLOS FRANCO,CARRERA 77 No 25 67,6.2269138,-75.5984475,16COMUNA 16 BELEN,exacto,0.03,0.49,0.0,0.0,0.04,0.66,0.06,1.38,0.01,0.36,0.02,0.52,0.03,1.01,0.02,0.44
31_1,MEDELLIN,31,1.0,I.E. OCTAVIO HARRY - JACQUELINE KENNEDY,27,6,12,135,37,84,846,537,1290,I.E. OCTAVIO HARRY - JACQUELINE KENNEDY,,,6.22226,-75.595919,,,0.41,6.73,0.56,8.78,0.21,3.64,0.39,7.19,0.24,6.06,0.61,11.24,0.32,10.05,0.61,11.36
31_2,MEDELLIN,31,2.0,I.E.JOSE MARIA BERNAL,60,22,24,197,75,205,1286,847,1843,I.E.JOSE MARIA BERNAL,I.E.JOSE MARIA BERNAL,KR 70A # 13A-19,6.2203041,-75.5934301,16COMUNA 16 BELEN,exacto,0.91,14.96,0.82,12.81,0.77,13.33,0.78,14.37,0.48,12.27,0.93,17.08,0.5,15.85,0.87,16.23
31_3,MEDELLIN,31,3.0,INSTITUTO SAN CARLOS,126,25,46,589,223,169,1429,679,2718,INSTITUTO SAN CARLOS,INST.SAN CARLOS DE LA SALLE,DIAG. 79 # 15-123,6.2231485,-75.600054,16COMUNA 16 BELEN,manual,1.91,31.42,2.46,38.3,0.88,15.15,1.49,27.54,1.43,36.5,1.04,18.98,0.4,12.7,1.28,23.93
31_4,MEDELLIN,31,4.0,I.E.ALCALDIA DE MEDELLIN,17,8,14,114,42,76,1000,1010,1367,I.E.ALCALDIA DE MEDELLIN,I.E.ALCALDIA DE MEDELLIN,CL 2B NO 79-80,6.212395,-75.6033683,16COMUNA 16 BELEN,exacto,0.26,4.24,0.48,7.41,0.28,4.85,0.45,8.38,0.27,6.87,0.73,13.28,0.6,18.9,0.64,12.04
31_5,MEDELLIN,31,5.0,COLEGIO PADRE MANYANET,74,30,25,317,102,81,1087,575,1549,COLEGIO PADRE MANYANET,COLEGIO PADRE MANYANET,CARRERA 84F No. 8 - 29,6.2196838,-75.6088012,16COMUNA 16 BELEN,exacto,1.12,18.45,1.32,20.61,1.05,18.18,0.81,14.97,0.66,16.69,0.79,14.44,0.34,10.76,0.73,13.64
31_6,MEDELLIN,31,6.0,I.E. CAPILLA DEL ROSARIO,15,12,12,50,19,37,410,408,524,I.E. CAPILLA DEL ROSARIO,I.E.CAMPILLAS DEL ROSARIO,CALLE 6 SUR No. 79 - 195,6.2051797,-75.6021386,16COMUNA 16 BELEN,fuzzy,0.23,3.74,0.21,3.25,0.42,7.27,0.39,7.19,0.12,3.11,0.3,5.45,0.24,7.63,0.25,4.61
31_7,MEDELLIN,31,7.0,IE ANTONIO RICAURTE,21,16,4,33,18,31,424,596,459,IE ANTONIO RICAURTE,IE ANTONIO RICAURTE,CRA 80 No 2-11,6.2111736,-75.6033137,16COMUNA 16 BELEN,exacto,0.32,5.24,0.14,2.15,0.56,9.7,0.13,2.4,0.12,2.95,0.31,5.63,0.35,11.15,0.22,4.04
31_8,MEDELLIN,31,8.0,COL LA INMACULADA,61,46,30,103,95,75,1047,693,1607,COL LA INMACULADA,COL LA INMACULADA,CRA 76 No 12-57,6.221235,-75.5983757,16COMUNA 16 BELEN,exacto,0.93,15.21,0.43,6.7,1.62,27.88,0.97,17.96,0.61,15.55,0.76,13.91,0.41,12.97,0.75,14.15
32_1,MEDELLIN,32,1.0,I.E.RAMON GIRALDO CEBALLOS,48,13,24,245,83,108,1111,857,1625,I.E.RAMON GIRALDO CEBALLOS,I.E.RAMON GIRALDO CEBALLOS,CL 21 NO 82A 56,6.2266378,-75.604409,16COMUNA 16 BELEN,exacto,0.73,20.51,1.02,24.65,0.46,16.05,0.78,22.22,0.53,25.7,0.81,23.65,0.51,21.64,0.76,24.5
32_2,MEDELLIN,32,2.0,UNIVERSIDAD DE MEDELLIN,98,31,37,411,99,116,1462,1145,2039,UNIVERSIDAD DE MEDELLIN,UNIVERSIDAD DE MEDELLIN,KR 87 # 30-65,6.230437,-75.6102397,16COMUNA 16 BELEN,exacto,1.49,41.88,1.71,41.35,1.09,38.27,1.2,34.26,0.64,30.65,1.06,31.13,0.68,28.91,0.96,30.74
32_3,MEDELLIN,32,3.0,I.E HORACIO MUÑOZ SUESCUN,46,12,23,216,80,80,853,648,1497,I.E HORACIO MUÃ‘OZ SUESCUN,I.E HORACIO MUÑOZ SUESCUN,CL 32 # 86-35,6.2343401,-75.6093606,16COMUNA 16 BELEN,fuzzy,0.7,19.66,0.9,21.73,0.42,14.81,0.75,21.3,0.51,24.77,0.62,18.16,0.38,16.36,0.7,22.57
32_4,MEDELLIN,32,4.0,I.E.REPUBLICA DE VENEZUELA,9,6,5,52,32,31,608,532,708,I.E.REPUBLICA DE VENEZUELA,I.E.REPUBLICA DE VENEZUELA,CL 31C # 89C-62,6.2346004,-75.6145772,16COMUNA 16 BELEN,exacto,0.14,3.85,0.22,5.23,0.21,7.41,0.16,4.63,0.21,9.91,0.44,12.94,0.31,13.43,0.33,10.68
32_5,MEDELLIN,32,5.0,I. E. SAN ROBERTO BELARMINO,21,11,16,54,22,31,410,465,478,I. E. SAN ROBERTO BELARMINO,I. E. SAN ROBERTO BELARMINO,CALLE 32B No. 83 - 39,6.2353674,-75.6067552,16COMUNA 16 BELEN,exacto,0.32,8.97,0.23,5.43,0.39,13.58,0.52,14.81,0.14,6.81,0.3,8.73,0.27,11.74,0.22,7.21
32_6,MEDELLIN,32,6.0,INST. SALESIANO PEDRO JUSTO BERRIO,11,5,2,16,3,14,168,148,177,INST. SALESIANO PEDRO JUSTO BERRIO,INSTITUTO PEDRO JUSTO BERRIO,CRA 87A No 32A-107,6.2367936,-75.6113159,16COMUNA 16 BELEN,fuzzy,0.17,4.7,0.07,1.61,0.18,6.17,0.06,1.85,0.02,0.93,0.12,3.58,0.09,3.74,0.08,2.67
32_7,MEDELLIN,32,7.0,IE PEDRO OCTAVIO AMADO,1,3,1,0,4,2,85,166,108,IE PEDRO OCTAVIO AMADO,IE PEDRO OCTAVIO AMADO,CR 88A  No 18A - 15,6.2220479,-75.6107039,16COMUNA 16 BELEN,exacto,0.02,0.43,0.0,0.0,0.11,3.7,0.03,0.93,0.03,1.24,0.06,1.81,0.1,4.19,0.05,1.63
4_1,MEDELLIN,4,1.0,I.E. BARRIO SANTA CRUZ,3,7,10,27,13,38,521,1048,539,I.E. BARRIO SANTA CRUZ,I.E. BARRIO SANTA CRUZ,CL 103 # 43A - 45,6.2921997,-75.5505565,02COMUNA 2 SANTA CRUZ,exacto,0.05,12.5,0.11,28.72,0.25,35.0,0.32,55.56,0.08,36.11,0.38,27.32,0.62,33.23,0.25,29.52
4_2,MEDELLIN,4,2.0,SEC. ESC. ARZOBISPO GARCIA,6,8,6,30,10,45,820,1035,680,SEC. ESC. ARZOBISPO GARCIA,SEC. ESC. ARZOBISPO GARCIA,KR 49 # 98-48,6.290176,-75.5560204,02COMUNA 2 SANTA CRUZ,exacto,0.09,25.0,0.13,31.91,0.28,40.0,0.19,33.33,0.06,27.78,0.6,43.0,0.61,32.82,0.32,37.24
4_3,MEDELLIN,4,3.0,I.E. REPUBLICA DE HONDURAS,15,5,2,37,13,38,566,1071,607,I.E. REPUBLICA DE HONDURAS,I.E. REPUBLICA DE HONDURAS,KR 50B # 97A-30,6.290896,-75.5594336,02COMUNA 2 SANTA CRUZ,exacto,0.23,62.5,0.15,39.36,0.18,25.0,0.06,11.11,0.08,36.11,0.41,29.68,0.63,33.96,0.28,33.24
5_1,MEDELLIN,5,1.0,I.E. MONTECARLO GUILLERMO GAVIRIA CORREA,12,6,9,50,26,47,768,1699,962,I.E. MONTECARLO GUILLERMO GAVIRIA CORREA,IE MONTECARLO GUILLERMO GAVIRIA,CARRERA 36 # 85 B 140,6.278153,-75.54657,03COMUNA 3 MANRIQUE,fuzzy,0.18,20.0,0.21,23.81,0.21,12.0,0.29,19.15,0.17,19.26,0.56,21.31,1.0,23.46,0.45,23.76
5_2,MEDELLIN,5,2.0,IE LAS NIEVES,14,10,7,38,19,66,649,1243,658,IE LAS NIEVES,IE LAS NIEVES,CLL 82 No 39 - 69,6.2736359,-75.5490417,03COMUNA 3 MANRIQUE,exacto,0.21,23.33,0.16,18.1,0.35,20.0,0.23,14.89,0.12,14.07,0.47,18.01,0.73,17.16,0.31,16.25
5_3,MEDELLIN,5,3.0,I.E. MANUELA BELTRAN,7,8,16,50,38,37,649,593,696,I.E. MANUELA BELTRAN,I.E. MANUELA BELTRAN,KR 37 # 71-47,6.2661811,-75.5485417,03COMUNA 3 MANRIQUE,exacto,0.11,11.67,0.21,23.81,0.28,16.0,0.52,34.04,0.24,28.15,0.47,18.01,0.35,8.19,0.33,17.19
5_4,MEDELLIN,5,4.0,SEC ESC SAN JOSE (IE MANUELA BELTRAN),17,10,6,62,34,59,922,1624,967,SEC ESC SAN JOSE (IE MANUELA BELTRAN),SEC ESC SAN JOSE (IE MANUELA BELTRAN),CL 71 No 33-18,6.2655756,-75.5459176,03COMUNA 3 MANRIQUE,exacto,0.26,28.33,0.26,29.52,0.35,20.0,0.19,12.77,0.22,25.19,0.67,25.58,0.96,22.42,0.45,23.88
5_5,MEDELLIN,5,5.0,I.E.RAMON MUNERA LOPERA,4,3,2,7,9,11,150,729,206,I.E.RAMON MUNERA LOPERA,I.E.RAMON MUNERA LOPERA,Cra 30A  # 77 - 04,6.2693528,-75.5436412,03COMUNA 3 MANRIQUE,exacto,0.06,6.67,0.03,3.33,0.11,6.0,0.06,4.26,0.06,6.67,0.11,4.16,0.43,10.06,0.1,5.09
5_6,MEDELLIN,5,6.0,IE BELLO ORIENTE,1,1,1,0,2,3,36,189,75,IE BELLO ORIENTE,IE BELLO ORIENTE,CRA 23B No 84B-27,6.2768963,-75.5382173,03COMUNA 3 MANRIQUE,exacto,0.02,1.67,0.0,0.0,0.04,2.0,0.03,2.13,0.01,1.48,0.03,1.0,0.11,2.61,0.04,1.85
5_7,MEDELLIN,5,7.0,IE JOSE ROBERTO VASQUEZ,3,5,1,3,1,11,137,405,135,IE JOSE ROBERTO VASQUEZ,IE JOSE ROBERTO VASQUEZ,CLL 76 No 39-160,6.2686053,-75.5501702,03COMUNA 3 MANRIQUE,exacto,0.05,5.0,0.01,1.43,0.18,10.0,0.03,2.13,0.01,0.74,0.1,3.8,0.24,5.59,0.06,3.33
5_8,MEDELLIN,5,8.0,SEC. ESC. BALDOMERO SANIN CANO,2,7,5,0,6,30,293,761,350,SEC. ESC. BALDOMERO SANIN CANO,,,6.26903,-75.54831,,,0.03,3.33,0.0,0.0,0.25,14.0,0.16,10.64,0.04,4.44,0.21,8.13,0.45,10.51,0.16,8.64
6_1,MEDELLIN,6,1.0,I.E. JOSE ANTONIO GALAN,9,12,13,49,23,46,719,1098,807,I.E. JOSE ANTONIO GALAN,I.E. JOSE ANTONIO GALAN,KR 44A NO 93-87,6.28494,-75.5521444,03COMUNA 3 MANRIQUE,exacto,0.14,15.25,0.2,27.68,0.42,30.0,0.42,43.33,0.15,30.67,0.52,29.66,0.65,27.4,0.38,28.38
6_2,MEDELLIN,6,2.0,I.E. HERNAN TORO AGUDELO,25,19,11,72,26,63,1024,1552,1270,I.E. HERNAN TORO AGUDELO,I.E. HERNAN TORO AGUDELO,Cra 45 # 72-80,6.2682192,-75.5548092,03COMUNA 3 MANRIQUE,exacto,0.38,42.37,0.3,40.68,0.67,47.5,0.36,36.67,0.17,34.67,0.74,42.24,0.92,38.72,0.6,44.66
6_3,MEDELLIN,6,3.0,IE RODRIGO LARA BONILLA - SEDE LA SUSANA,19,4,6,44,21,21,468,802,540,IE RODRIGO LARA BONILLA - SEDE LA SUSANA,SEC ESC SUSANA D. (IE RODRIGO LARA BONI),KR 41B # 66E-50,6.2624287,-75.5532465,03COMUNA 3 MANRIQUE,manual,0.29,32.2,0.18,24.86,0.14,10.0,0.19,20.0,0.14,28.0,0.34,19.31,0.47,20.01,0.25,18.99
6_4,MEDELLIN,6,4.0,IE SAN JUAN BAUTISTA DE LA SALLE,6,5,0,12,5,19,213,556,227,IE SAN JUAN BAUTISTA DE LA SALLE,IE SAN JUAN BAUTISTA DE LA SALLE,CLL 93 No 40-42,6.284409,-75.5493091,03COMUNA 3 MANRIQUE,exacto,0.09,10.17,0.05,6.78,0.18,12.5,0.0,0.0,0.03,6.67,0.15,8.79,0.33,13.87,0.11,7.98
7_1,MEDELLIN,7,1.0,COL AGUSTINIANO DE SAN NICOLAS,27,6,10,85,34,184,1043,1325,1439,COL AGUSTINIANO DE SAN NICOLAS,COL AGUSTINIANO DE SAN NICOLAS,KR 48 # 93-13,6.284794,-75.5555856,04COMUNA 4 ARANJUEZ,exacto,0.41,24.55,0.35,24.36,0.21,11.11,0.32,17.24,0.22,26.56,0.76,24.09,0.78,20.01,0.68,26.91
7_2,MEDELLIN,7,2.0,I.E. MONSEÑOR FRANCISCO CRISTOBAL TORO,30,13,10,101,25,94,859,1101,1119,I.E. MONSEÃ‘OR FRANCISCO CRISTOBAL TORO,I.E. MONSEÑOR FCO. CRISTOBAL T,Cra 50D # 90-49,6.2825483,-75.5604068,04COMUNA 4 ARANJUEZ,fuzzy,0.46,27.27,0.42,28.94,0.46,24.07,0.32,17.24,0.16,19.53,0.62,19.84,0.65,16.63,0.53,20.93
7_3,MEDELLIN,7,3.0,I.E. GILBERTO ALZATE AVENDAÑO,11,7,16,82,19,77,853,1267,947,I.E. GILBERTO ALZATE AVENDAÃ‘O,I.E. GILBERTO ALZATE AVENDAÑO,CL 92 # 51A-100,6.2836258,-75.5626718,04COMUNA 4 ARANJUEZ,fuzzy,0.17,10.0,0.34,23.5,0.25,12.96,0.52,27.59,0.12,14.84,0.62,19.7,0.75,19.14,0.44,17.71
7_4,MEDELLIN,7,4.0,I.E. CAMPO VALDES,22,14,12,55,30,52,838,1365,939,I.E. CAMPO VALDES,I.E. CAMPO VALDES,CL 83 # 47-33,6.2752956,-75.5556649,04COMUNA 4 ARANJUEZ,exacto,0.33,20.0,0.23,15.76,0.49,25.93,0.39,20.69,0.19,23.44,0.61,19.36,0.81,20.62,0.44,17.56
7_5,MEDELLIN,7,5.0,I.E.SAN JUAN BOSCO,8,3,3,12,8,17,231,408,274,I.E.SAN JUAN BOSCO,I.E.SAN JUAN BOSCO,CALLE 82 # 50C-10,6.2758977,-75.5610219,04COMUNA 4 ARANJUEZ,exacto,0.12,7.27,0.05,3.44,0.11,5.56,0.1,5.17,0.05,6.25,0.17,5.34,0.24,6.16,0.13,5.12
7_6,MEDELLIN,7,6.0,I.E. JOSE EUSEBIO CARO,7,4,5,6,6,18,220,449,268,I.E. JOSE EUSEBIO CARO,IE JOSE EUSEVIO CARO,CRA 50B No 93 - 106,6.2855519,-75.5587869,04COMUNA 4 ARANJUEZ,fuzzy,0.11,6.36,0.03,1.72,0.14,7.41,0.16,8.62,0.04,4.69,0.16,5.08,0.27,6.78,0.13,5.01
7_7,MEDELLIN,7,7.0,IE LORENZA VILLEGAS DE SANTOS,5,4,1,5,3,19,197,470,255,IE LORENZA VILLEGAS DE SANTOS,IE LORENZA VILLEGAS DE SANTOS,CRA 51 No 87 - 40,6.2802524,-75.5607509,04COMUNA 4 ARANJUEZ,exacto,0.08,4.55,0.02,1.43,0.14,7.41,0.03,1.72,0.02,2.34,0.14,4.55,0.28,7.1,0.12,4.77
7_8,MEDELLIN,7,8.0,SEC ESC TOMAS CARRASQUILLA No 1,0,3,1,3,3,7,88,236,106,SEC ESC TOMAS CARRASQUILLA NO 1,SEC ESC TOMAS CARRASQUILLA No 1,CRA 52 No 92 - 05,6.2838164,-75.563192,04COMUNA 4 ARANJUEZ,exacto,0.0,0.0,0.01,0.86,0.11,5.56,0.03,1.72,0.02,2.34,0.06,2.03,0.14,3.56,0.05,1.98
8_1,MEDELLIN,8,1.0,I.E. ALFONSO MORA NARANJO,14,15,14,87,14,81,848,1003,1014,I.E. ALFONSO MORA NARANJO,I.E. ALFONSO MORA NARANJO,KR 48A # 77-68,6.271335,-75.5572578,04COMUNA 4 ARANJUEZ,exacto,0.21,13.73,0.36,26.36,0.53,19.74,0.45,22.58,0.09,11.86,0.62,27.94,0.59,16.0,0.48,24.1
8_2,MEDELLIN,8,2.0,I.E. JOSE MARIA BRAVO MARQUEZ,18,10,9,54,22,43,475,863,731,I.E. JOSE MARIA BRAVO MARQUEZ,I.E. JOSE MARIA BRAVO MARQUEZ,CL 70 # 47A-04,6.2656458,-75.557353,04COMUNA 4 ARANJUEZ,exacto,0.27,17.65,0.23,16.36,0.35,13.16,0.29,14.52,0.14,18.64,0.35,15.65,0.51,13.77,0.34,17.37
8_3,MEDELLIN,8,3.0,I.E. FRANCISCO MIRANDA,31,9,12,65,38,58,759,1373,1045,I.E. FRANCISCO MIRANDA,I.E. FRANCISCO MIRANDA,KR 51C # 79-56,6.2741152,-75.5635754,04COMUNA 4 ARANJUEZ,exacto,0.47,30.39,0.27,19.7,0.32,11.84,0.39,19.35,0.24,32.2,0.55,25.01,0.81,21.91,0.49,24.83
8_4,MEDELLIN,8,4.0,I.E. JAVIERA LONDOÑO SEVILLA,28,31,16,100,33,32,575,1785,909,I.E. JAVIERA LONDOÃ‘O SEVILLA,,,6.267915,-75.564933,,,0.42,27.45,0.42,30.3,1.09,40.79,0.52,25.81,0.21,27.97,0.42,18.95,1.05,28.48,0.43,21.6
8_5,MEDELLIN,8,5.0,I.E. EL BOSQUE,5,1,5,22,9,9,159,660,241,I.E. EL BOSQUE,I.E. EL BOSQUE,Cra 58 # 85B 81,6.2798373,-75.5672473,04COMUNA 4 ARANJUEZ,exacto,0.08,4.9,0.09,6.67,0.04,1.32,0.16,8.06,0.06,7.63,0.12,5.24,0.39,10.53,0.11,5.73
8_6,MEDELLIN,8,6.0,SEC ESC JULIO ARBOLEDA,2,1,2,2,1,6,115,266,146,SEC ESC JULIO ARBOLEDA,SEC ESC JULIO ARBOLEDA,CRA 51 No 78-15,6.2726019,-75.5624789,04COMUNA 4 ARANJUEZ,exacto,0.03,1.96,0.01,0.61,0.04,1.32,0.06,3.23,0.01,0.85,0.08,3.79,0.16,4.24,0.07,3.47
8_7,MEDELLIN,8,7.0,SEC. ESC. PORFIRIO BARBA JACOB,2,7,0,0,0,1,44,92,46,SEC. ESC. PORFIRIO BARBA JACOB,ESCUELA SECCION PORFIRIO BARBA JACOB,CARRERA 47 No 74 20,6.2689592,-75.5564298,04COMUNA 4 ARANJUEZ,fuzzy,0.03,1.96,0.0,0.0,0.25,9.21,0.0,0.0,0.0,0.0,0.03,1.45,0.05,1.47,0.02,1.09
8_8,MEDELLIN,8,8.0,IE FE Y ALEGRIA LUIS AMIGO MORAVIA,2,2,4,0,1,3,60,225,76,IE FE Y ALEGRIA LUIS AMIGO MORAVIA,IE FE Y ALEGRIA LUIS AMIGO MORAVIA,CARRERA 58 No 84 40,6.279136,-75.5664082,04COMUNA 4 ARANJUEZ,exacto,0.03,1.96,0.0,0.0,0.07,2.63,0.13,6.45,0.01,0.85,0.04,1.98,0.13,3.59,0.04,1.81
9_1,MEDELLIN,9,1.0,I.E. JULIO CESAR GARCIA,32,6,15,113,37,66,943,937,1360,I.E. JULIO CESAR GARCIA,I.E. JULIO CESAR GARCIA,CL 111A # 65-26,6.3064327,-75.5641527,05COMUNA 5 CASTILLA,exacto,0.49,26.89,0.47,24.2,0.21,15.79,0.49,34.88,0.24,24.83,0.69,26.6,0.55,18.12,0.64,25.92
9_2,MEDELLIN,9,2.0,IE DIEGO ECHAVARRIA MISAS,30,7,9,83,41,83,1009,1107,1471,IE DIEGO ECHAVARRIA MISAS,IE DIEGO ECHAVARRIA MISAS,CALLE 111 No 70 68,6.3085715,-75.5691596,05COMUNA 5 CASTILLA,exacto,0.46,25.21,0.35,17.77,0.25,18.42,0.29,20.93,0.26,27.52,0.73,28.46,0.65,21.41,0.69,28.04
9_3,MEDELLIN,9,3.0,I.E. PBRO ANTONIO JOSE BERNAL LONDOÑO SJ,29,7,11,130,41,59,577,1175,1080,I.E. PBRO ANTONIO JOSE BERNAL LONDOÃ‘O SJ,IE PRESBITERO ANTONIO JOSE BERNAL LONDOÑ,CL 105A # 63A-200,6.301311,-75.559322,05COMUNA 5 CASTILLA,fuzzy,0.44,24.37,0.54,27.84,0.25,18.42,0.36,25.58,0.26,27.52,0.42,16.28,0.69,22.72,0.51,20.59
9_4,MEDELLIN,9,4.0,I.E.SEBASTIAN DE BELALCAZAR,5,2,0,15,2,19,210,395,281,I.E.SEBASTIAN DE BELALCAZAR,I.E.SEBASTIAN DE BELALCAZAR,CALLE 103EE  # 63D-185,6.297786,-75.564457,05COMUNA 5 CASTILLA,exacto,0.08,4.2,0.06,3.21,0.07,5.26,0.0,0.0,0.01,1.34,0.15,5.92,0.23,7.64,0.13,5.36
9_5,MEDELLIN,9,5.0,SEC ESC TRICENTENARIO,18,14,5,109,24,47,633,1169,809,SEC ESC TRICENTENARIO,SEC ESC TRICENTENARIO,CRA 63A No 94A-23,6.289385,-75.5662072,05COMUNA 5 CASTILLA,exacto,0.27,15.13,0.45,23.34,0.49,36.84,0.16,11.63,0.15,16.11,0.46,17.86,0.69,22.61,0.38,15.42
9_6,MEDELLIN,9,6.0,SEC ESC TOSCANA,5,2,3,17,4,14,173,388,245,SEC ESC TOSCANA,SEC ESC TOSCANA,CLL 111G No 64A-16,6.3062684,-75.5593297,05COMUNA 5 CASTILLA,exacto,0.08,4.2,0.07,3.64,0.07,5.26,0.1,6.98,0.03,2.68,0.13,4.88,0.23,7.5,0.12,4.67
90_1,MEDELLIN,90,1.0,ESTADIO ATANASIO GIRARDOT,88,10,45,369,195,161,1708,1894,3195,ESTADIO ATANASIO GIRARDOT,ESTADIO ATANASIO GIRARDOT,CL 48 # 73 - 10,6.2566311,-75.5900927,,exacto,1.34,51.16,1.54,55.24,0.35,38.46,1.46,56.25,1.25,50.13,1.24,54.34,1.12,61.96,1.5,55.3
90_2,MEDELLIN,90,2.0,PLAZA MAYOR CTRO EXPOS. CONVEN,84,16,35,299,194,143,1435,1163,2583,PLAZA MAYOR CTRO EXPOS. CONVEN,PLAZA MAYOR CTRO EXPOS. CONVEN,CL 41 # 55 - 35,6.2417615,-75.5768265,,exacto,1.27,48.84,1.25,44.76,0.56,61.54,1.14,43.75,1.25,49.87,1.04,45.66,0.69,38.04,1.21,44.7
98_1,MEDELLIN,98,1.0,RECLUSION DE MUJERES PEDREGAL MEDELLIN,0,0,0,0,0,1,3,9,3,RECLUSION DE MUJERES PEDREGAL MEDELLIN,RECLUSION DE MUJERES PEDREGAL MEDELLIN,KM 6 VIA AL MAR FINCA LA TERES,6.2835613,-75.6280858,,exacto,0.0,0.0,0.0,0.0,0.0,0.0,0.0,0.0,0.0,0.0,0.0,20.0,0.01,20.45,0.0,9.38
98_2,MEDELLIN,98,2.0,ESTABLECIMIENTO CARCELARIO PEDREGAL MEDE,0,0,0,0,0,0,0,15,5,ESTABLECIMIENTO CARCELARIO PEDREGAL MEDE,ESTABLECIMIENTO CARCELARIO PEDREGAL MEDE,KM 6 VIA AL MAR FINCA LA TERES,6.28354,-75.6281234,,exacto,0.0,0.0,0.0,0.0,0.0,0.0,0.0,0.0,0.0,0.0,0.0,0.0,0.01,34.09,0.0,15.62
98_3,MEDELLIN,98,3.0,CENTRO CARLOS LLERAS RESTREPO,1,0,1,0,0,0,12,20,24,CENTRO CARLOS LLERAS RESTREPO,CENTRO CARLOS LLERAS RESTREPO,CALLE 65C No. 94C-80,6.2852513,-75.6025792,,exacto,0.02,100.0,0.0,0.0,0.0,0.0,0.03,100.0,0.0,0.0,0.01,80.0,0.01,45.45,0.01,75.0
99_1,MEDELLIN,99,1.0,CENTRO EDUCATIVO EL MANZANILLO,3,2,0,0,5,5,122,71,169,CENTRO EDUCATIVO EL MANZANILLO,CENTRO EDUCATIVO EL MANZANILLO,CLL 5A SUR No 89A - 11 VEREDA MANZANILLO,6.2068986,-75.6140905,17CORREGIMIENTO ALTAVISTA,exacto,0.05,1.41,0.0,0.0,0.07,1.87,0.0,0.0,0.03,1.45,0.09,1.58,0.04,0.54,0.08,1.73
99_10,MEDELLIN,99,10.0,IE FE Y ALEGRIA EL LIMONAR,10,7,3,33,18,42,394,1229,551,IE FE Y ALEGRIA EL LIMONAR,IE FE Y ALEGRIA EL LIMONAR,CL 55 SUR No 60 A-13 SAN ANTONIO DE PRADO,6.174708,-75.6421088,18CORR.  SAN ANTONIO DE PRADO,exacto,0.15,4.69,0.14,17.65,0.25,6.54,0.1,2.48,0.12,5.23,0.29,5.11,0.73,9.34,0.26,5.65
99_17,MEDELLIN,99,17.0,IE HECTOR ROGELIO MONTOYA,2,2,1,2,7,9,157,168,176,IE HECTOR ROGELIO MONTOYA,IE HECTOR ROGELIO MONTOYA,CLL 20 No 32-60,6.3435988,-75.6887088,19CORREGIMIENTO PALMITAS,exacto,0.03,0.94,0.01,1.07,0.07,1.87,0.03,0.83,0.05,2.03,0.11,2.04,0.1,1.28,0.08,1.8
99_2,MEDELLIN,99,2.0,C.E. MARIA PAULINA TABORDA,1,0,0,0,0,0,22,36,15,C.E. MARIA PAULINA TABORDA,,,6.247855,-75.636229,,,0.02,0.47,0.0,0.0,0.0,0.0,0.0,0.0,0.0,0.0,0.02,0.29,0.02,0.27,0.01,0.15
99_3,MEDELLIN,99,3.0,I.E. DEBORA ARANGO PEREZ,7,3,5,32,15,81,461,844,480,I.E. DEBORA ARANGO PEREZ,I.E. DEBORA ARANGO PEREZ,CL 18 No 103-60 ALTAVISTA,6.2209074,-75.6137259,17CORREGIMIENTO ALTAVISTA,exacto,0.11,3.29,0.13,17.11,0.11,2.8,0.16,4.13,0.1,4.36,0.34,5.98,0.5,6.41,0.23,4.92
99_33,MEDELLIN,99,33.0,CASA DE GOBIERNO SANTA ELENA,17,2,6,120,18,32,268,330,389,CASA DE GOBIERNO SANTA ELENA,CASA DE GOBIERNO SANTA ELENA,SANTA ELENA,6.209568,-75.4976222,21CORREGIMIENTO SANTA ELENA,exacto,0.26,7.98,0.5,64.17,0.07,1.87,0.19,4.96,0.12,5.23,0.19,3.48,0.19,2.51,0.18,3.99
99_34,MEDELLIN,99,34.0,COLISEO SANTA ELENA,34,9,7,0,26,14,356,542,402,COLISEO SANTA ELENA,COLISEO SANTA ELENA,CORREGIMIENTO SANTA ELENA,6.2107841,-75.4971002,21CORREGIMIENTO SANTA ELENA,exacto,0.52,15.96,0.0,0.0,0.32,8.41,0.23,5.79,0.17,7.56,0.26,4.62,0.32,4.12,0.19,4.12
99_35,MEDELLIN,99,35.0,C.E. JUAN ANDRES PATIÑO,0,1,0,0,0,0,18,37,19,C.E. JUAN ANDRES PATIÃ‘O,,,6.23194,-75.48003,,,0.0,0.0,0.0,0.0,0.04,0.93,0.0,0.0,0.0,0.0,0.01,0.23,0.02,0.28,0.01,0.19
99_36,MEDELLIN,99,36.0,C.E. MEDIA LUNA,0,0,0,0,0,1,24,20,22,C.E. MEDIA LUNA,,,6.238507,-75.517772,,,0.0,0.0,0.0,0.0,0.0,0.0,0.0,0.0,0.0,0.0,0.02,0.31,0.01,0.15,0.01,0.23
99_4,MEDELLIN,99,4.0,PARROQ SAN JOSEMARIA ESCRIVA DE BALAGUER,2,0,0,0,2,1,25,37,56,PARROQ SAN JOSEMARIA ESCRIVA DE BALAGUER,,,6.23413,-75.626564,,,0.03,0.94,0.0,0.0,0.0,0.0,0.0,0.0,0.01,0.58,0.02,0.32,0.02,0.28,0.03,0.57
99_CENTRO DE DESARROLLO SOCIAL (CDS),MEDELLIN,99,,CENTRO DE DESARROLLO SOCIAL (CDS),5,7,7,0,12,26,344,699,424,CENTRO DE DESARROLLO SOCIAL (CDS),CENTRO DE DESARROLLO SOCIAL (CDS),CRA 79 No 40 SUR - 40,6.1854238,-75.6559188,18CORR.  SAN ANTONIO DE PRADO,exacto,0.08,2.35,0.0,0.0,0.25,6.54,0.23,5.79,0.08,3.49,0.25,4.47,0.41,5.31,0.2,4.35
99_I.E. MANUEL J. BETANCUR,MEDELLIN,99,,I.E. MANUEL J. BETANCUR,30,11,14,0,42,63,937,1628,1029,I.E. MANUEL J. BETANCUR,I.E.MANUEL DE J.BETANCUR,CRA 81 No 43 SUR - 38,6.1836668,-75.6574952,18CORR.  SAN ANTONIO DE PRADO,fuzzy,0.46,14.08,0.0,0.0,0.39,10.28,0.45,11.57,0.27,12.21,0.68,12.16,0.96,12.37,0.48,10.55
99_I.E. PRESBITERO JUAN J. ESCOBAR,MEDELLIN,99,,I.E. PRESBITERO JUAN J. ESCOBAR,9,6,4,0,13,53,269,561,376,I.E. PRESBITERO JUAN J. ESCOBAR,I.E. PRESBITERO JUAN J. ESCOBAR,CLL 62 No 128-120,6.2783126,-75.6346333,20CORREGIMIENTO SAN CRISTOBAL,exacto,0.14,4.23,0.0,0.0,0.21,5.61,0.13,3.31,0.08,3.78,0.2,3.49,0.33,4.26,0.18,3.85
99_IE ALFONSO UPEGUI OROZCO,MEDELLIN,99,,IE ALFONSO UPEGUI OROZCO,2,2,8,0,15,21,268,343,303,IE ALFONSO UPEGUI OROZCO,IE ALFONSO UPEGUI OROZCO,CALLE 64B No 117 177,6.2878863,-75.6098148,20CORREGIMIENTO SAN CRISTOBAL,exacto,0.03,0.94,0.0,0.0,0.07,1.87,0.26,6.61,0.1,4.36,0.19,3.48,0.2,2.61,0.14,3.11
99_IE ANGELA RESTREPO MORENO,MEDELLIN,99,,IE ANGELA RESTREPO MORENO,3,1,2,0,14,3,113,304,168,IE ANGELA RESTREPO MORENO,IE ANGELA RESTREPO MORENO,CARRERA 55 No 48C SUR 90,6.177514,-75.6373913,18CORR.  SAN ANTONIO DE PRADO,exacto,0.05,1.41,0.0,0.0,0.04,0.93,0.06,1.65,0.09,4.07,0.08,1.47,0.18,2.31,0.08,1.72
99_IE LOMA HERMOSA,MEDELLIN,99,,IE LOMA HERMOSA,0,1,3,0,11,25,184,351,193,IE LOMA HERMOSA,IE LOMA HERMOSA,CRA 123B No 53B-05,6.2704707,-75.6295618,20CORREGIMIENTO SAN CRISTOBAL,exacto,0.0,0.0,0.0,0.0,0.04,0.93,0.1,2.48,0.07,3.2,0.13,2.39,0.21,2.67,0.09,1.98
99_IE LUSITANIA,MEDELLIN,99,,IE LUSITANIA,7,11,10,0,16,39,421,1211,569,IE LUSITANIA,IE LUSITANIA,CRA 109A No 63B-320,6.2791544,-75.6181553,20CORREGIMIENTO SAN CRISTOBAL,exacto,0.11,3.29,0.0,0.0,0.39,10.28,0.32,8.26,0.1,4.65,0.31,5.46,0.72,9.2,0.27,5.83
99_IE MONSEÑOR VICTOR WIEDEMANN,MEDELLIN,99,,IE MONSEÑOR VICTOR WIEDEMANN,12,7,3,0,9,22,400,749,483,IE MONSEÃ‘OR VICTOR WIEDEMANN,IE MONSEÑOR VICTOR WIEDEMANN,DIAG 60E No. 41A SUR - 30,6.1840473,-75.6423211,18CORR.  SAN ANTONIO DE PRADO,fuzzy,0.18,5.63,0.0,0.0,0.25,6.54,0.1,2.48,0.06,2.62,0.29,5.19,0.44,5.69,0.23,4.95
99_IE SAN ANTONIO DE PRADO,MEDELLIN,99,,IE SAN ANTONIO DE PRADO,23,11,21,0,52,70,1181,1363,1385,IE SAN ANTONIO DE PRADO,IE SAN ANTONIO DE PRADO,CRA 79 No. 42 SUR - 39,6.1842588,-75.656197,18CORR.  SAN ANTONIO DE PRADO,exacto,0.35,10.8,0.0,0.0,0.39,10.28,0.68,17.36,0.33,15.12,0.86,15.33,0.8,10.36,0.65,14.19
99_IE SAN CRISTOBAL,MEDELLIN,99,,IE SAN CRISTOBAL,22,4,9,0,25,238,711,869,1093,IE SAN CRISTOBAL,IE SAN CRISTOBAL,CRA 131 No 65-7,6.2806924,-75.6365856,20CORREGIMIENTO SAN CRISTOBAL,exacto,0.33,10.33,0.0,0.0,0.14,3.74,0.29,7.44,0.16,7.27,0.52,9.23,0.51,6.6,0.51,11.2
99_PAR. BIBLIOTECA JOSE HORACIO BETANCUR,MEDELLIN,99,,PAR. BIBLIOTECA JOSE HORACIO BETANCUR,2,10,7,0,9,19,216,446,251,PAR. BIBLIOTECA JOSE HORACIO BETANCUR,P BIBL JOSE HORACIO BETANCUR,CLL 50 E SUR 75 A - 94,6.1773092,-75.6544411,18CORR.  SAN ANTONIO DE PRADO,fuzzy,0.03,0.94,0.0,0.0,0.35,9.35,0.23,5.79,0.06,2.62,0.16,2.8,0.26,3.39,0.12,2.57
99_PARQUE BIBLIOTECA FERNANDO BOTERO,MEDELLIN,99,,PARQUE BIBLIOTECA FERNANDO BOTERO,18,6,10,0,31,147,691,1064,1009,PARQUE BIBLIOTECA FERNANDO BOTERO,PARQUE BIBLIOTECA FERNANDO BOTERO,CRA 131 No 62-15,6.2778592,-75.6367918,20CORREGIMIENTO SAN CRISTOBAL,exacto,0.27,8.45,0.0,0.0,0.21,5.61,0.32,8.26,0.2,9.01,0.5,8.97,0.63,8.08,0.47,10.34
99_SEC ESC JUAN NEPOMUCENO MORALES,MEDELLIN,99,,SEC ESC JUAN NEPOMUCENO MORALES,4,4,1,0,4,37,122,259,196,SEC ESC JUAN NEPOMUCENO MORALES,SEC ESC JUAN NEPOMUCENO MORALES,CALLE 62 No 127 6,6.2792238,-75.6320439,20CORREGIMIENTO SAN CRISTOBAL,exacto,0.06,1.88,0.0,0.0,0.14,3.74,0.03,0.83,0.03,1.16,0.09,1.58,0.15,1.97,0.09,2.01
